[{"id": "A-637531", "lat": 33.90292, "lng": -84.24099, "severity": 3, "startTime": "4/26/2022 15:30", "weatherCondition": "Cloudy", "temperature": 61.0, "humidity": 81.0, "visibility": 10.0, "windSpeed": 9.0, "description": "HOV lane blocked due to crash on I-85 Northbound near Pleasantdale Rd.", "street": "GA-403 N", "city": "Atlanta", "state": "GA", "distance": 0.0}, {"id": "A-596400", "lat": 40.00996, "lng": -75.06437, "severity": 3, "startTime": "6/10/2022 6:02", "weatherCondition": "Fair", "temperature": 62.0, "humidity": 67.0, "visibility": 10.0, "windSpeed": 8.0, "description": "Left lane blocked due to crash on I-95 Southbound between Exit 30 Cottman Ave and Exit 27 James St.", "street": "Fraley St", "city": "Philadelphia", "state": "PA", "distance": 2.4800000190734863}, {"id": "A-689616", "lat": 37.89809, "lng": -122.07176, "severity": 3, "startTime": "3/3/2022 20:53", "weatherCondition": "Mostly Cloudy", "temperature": 53.0, "humidity": 83.0, "visibility": 10.0, "windSpeed": 5.0, "description": "Exit ramp from I-680 Southbound to Ca-24 Westbound lane blocked due to crash.", "street": "I-680 S", "city": "Walnut Creek", "state": "CA", "distance": 0.5799999833106995}, {"id": "A-524976", "lat": 34.85352, "lng": -82.38383, "severity": 1, "startTime": "8/26/2022 7:56", "weatherCondition": "Fog", "temperature": 73.0, "humidity": 90.0, "visibility": 1.0, "windSpeed": 3.0, "description": "Crash on I-385-SPUR North St at Exit 42 US-276 Laurens Rd.", "street": "42B", "city": "Greenville", "state": "SC", "distance": 0.0}, {"id": "A-570362", "lat": 32.86395, "lng": -96.8292, "severity": 1, "startTime": "7/11/2022 5:24", "weatherCondition": "Fair", "temperature": 81.0, "humidity": 77.0, "visibility": 10.0, "windSpeed": 6.0, "description": "Crash on TX-12-LOOP Northwest Hwy at Briarwood Ln.", "street": "W Northwest Hwy", "city": "Dallas", "state": "TX", "distance": 0.0}, {"id": "A-723539", "lat": 40.89242, "lng": -74.66486, "severity": 3, "startTime": "2/3/2022 13:02", "weatherCondition": "Light Rain", "temperature": 42.0, "humidity": 96.0, "visibility": 0.75, "windSpeed": 0.0, "description": "Left lane blocked due to accident on I-80 Westbound at Exit 28 / CR-631.", "street": "I-80 E", "city": "Ledgewood", "state": "NJ", "distance": 0.0}, {"id": "A-595188", "lat": 41.79282, "lng": -87.9289, "severity": 1, "startTime": "6/13/2022 8:20", "weatherCondition": "Mostly Cloudy", "temperature": 70.0, "humidity": 63.0, "visibility": 10.0, "windSpeed": 7.0, "description": "Crash on Washington St near 8th St.", "street": "W 8th St", "city": "Hinsdale", "state": "IL", "distance": 0.0}, {"id": "A-755849", "lat": 32.49718, "lng": -93.7332, "severity": 2, "startTime": "1/4/2022 8:38", "weatherCondition": "Fair", "temperature": 37.0, "humidity": 62.0, "visibility": 10.0, "windSpeed": 10.0, "description": "Accident on Lister St at Centenary Blvd.", "street": "Centenary Blvd", "city": "Shreveport", "state": "LA", "distance": 0.0}, {"id": "A-588188", "lat": 43.75707, "lng": -87.7637, "severity": 3, "startTime": "6/20/2022 17:42", "weatherCondition": "Fair", "temperature": 92.0, "humidity": 42.0, "visibility": 10.0, "windSpeed": 15.0, "description": "Entry ramp to I-43 Northbound from Kohler Memorial Dr Westbound closed due to crash.", "street": "I-43 N", "city": "Sheboygan", "state": "WI", "distance": 0.17000000178813934}, {"id": "A-5155650", "lat": 40.11042, "lng": -80.01202, "severity": 4, "startTime": "33:00.0", "weatherCondition": "Fog", "temperature": 43.0, "humidity": 97.0, "visibility": 2.0, "windSpeed": 0.0, "description": "Incident on PA-917 WB near OLIVER AVE Road closed. Take alternate route.", "street": "Main St", "city": "Bentleyville", "state": "PA", "distance": 0.233}, {"id": "A-4379681", "lat": 35.12293, "lng": -90.53539, "severity": 2, "startTime": "8/21/2022 9:38", "weatherCondition": "Thunder in the Vicinity", "temperature": 79.0, "humidity": 79.0, "visibility": 10.0, "windSpeed": 10.0, "description": "Slow traffic on I-40 E - US-63 E from AR-75/Exit 256 (I-40) to AR-149/Exit 260 (I-40) due to accident.", "street": "I 40 Hwy W", "city": "Heth", "state": "AR", "distance": 1.348}, {"id": "A-533300", "lat": 27.44781, "lng": -80.39399, "severity": 3, "startTime": "8/18/2022 20:04", "weatherCondition": "Light Rain with Thunder", "temperature": 74.0, "humidity": 93.0, "visibility": 10.0, "windSpeed": 0.0, "description": "Two lanes blocked due to crash on I-95 Northbound after Exit 131 FL-68 Orange Ave.", "street": "I-95", "city": "Fort Pierce", "state": "FL", "distance": 0.0}, {"id": "A-4293991", "lat": 40.78685, "lng": -73.82381, "severity": 2, "startTime": "7/13/2022 22:59", "weatherCondition": "Mostly Cloudy", "temperature": 79.0, "humidity": 66.0, "visibility": 10.0, "windSpeed": 10.0, "description": "Incident on I-678 near I-678 Drive with caution.", "street": "Whitestone Expy N", "city": "Whitestone", "state": "NY", "distance": 0.041}, {"id": "A-678924", "lat": 34.50933, "lng": -80.99809, "severity": 3, "startTime": "3/13/2022 17:11", "weatherCondition": "Fair", "temperature": 27.0, "humidity": 59.0, "visibility": 10.0, "windSpeed": 3.0, "description": "Right lane blocked due to crash on I-77 Northbound at Exit 48 SC-200.", "street": "State Highway 200", "city": "Winnsboro", "state": "SC", "distance": 0.0}, {"id": "A-4592362", "lat": 38.50458, "lng": -121.45802, "severity": 2, "startTime": "12/12/2022 8:24", "weatherCondition": "Fair", "temperature": 44.0, "humidity": 85.0, "visibility": 10.0, "windSpeed": 8.0, "description": "Incident on CUNY AVE near 42ND ST Drive with caution.", "street": "42nd St", "city": "Sacramento", "state": "CA", "distance": 0.038}, {"id": "A-5072576", "lat": 37.30152, "lng": -80.54918, "severity": 4, "startTime": "7/17/2022 19:57", "weatherCondition": "Fair", "temperature": 76.0, "humidity": 75.0, "visibility": 10.0, "windSpeed": 3.0, "description": "Incident on US-460 EB near BLANCHE LN Road closed. Take alternate route.", "street": "Virginia Ave", "city": "Pembroke", "state": "VA", "distance": 0.026}, {"id": "A-517421", "lat": 29.78213, "lng": -95.36874, "severity": 3, "startTime": "9/3/2022 9:53", "weatherCondition": "Mostly Cloudy", "temperature": 84.0, "humidity": 79.0, "visibility": 8.0, "windSpeed": 0.0, "description": "Three lanes blocked due to crash on I-45 Southbound after I-45 Exit 49A / IH-10.", "street": "I-45 S", "city": "Houston", "state": "TX", "distance": 0.0}, {"id": "A-4341260", "lat": 42.20903, "lng": -71.78313, "severity": 4, "startTime": "2/5/2022 6:06", "weatherCondition": "Mostly Cloudy", "temperature": 18.0, "humidity": 78.0, "visibility": 10.0, "windSpeed": 10.0, "description": "I-90 EB Exit 94.5", "street": "Mass Pike", "city": "Millbury", "state": "MA", "distance": 2.166}, {"id": "A-4122069", "lat": 25.96307, "lng": -80.15968, "severity": 2, "startTime": "12/19/2022 7:34", "weatherCondition": "Fair", "temperature": 62.0, "humidity": 84.0, "visibility": 10.0, "windSpeed": 9.0, "description": "Slow traffic on FL-854 from I-95 (FL-854) to US-1/FL-5/Biscayne Blvd (FL-854) due to accident.", "street": "NE 203rd St", "city": "Miami", "state": "FL", "distance": 0.7879999999999999}, {"id": "A-596200", "lat": 34.99311, "lng": -81.99718, "severity": 3, "startTime": "6/11/2022 16:18", "weatherCondition": "Fair", "temperature": 86.0, "humidity": 37.0, "visibility": 10.0, "windSpeed": 0.0, "description": "Right lane blocked due to crash on I-85 Southbound at Exit 72 US-176.", "street": "I-85", "city": "Spartanburg", "state": "SC", "distance": 0.0}, {"id": "A-3984761", "lat": 34.07017, "lng": -117.19918, "severity": 2, "startTime": "6/24/2022 16:49", "weatherCondition": "Fair", "temperature": 100.0, "humidity": 11.0, "visibility": 10.0, "windSpeed": 10.0, "description": "Incident on TENNESSEE ST near W LUGONIA AVE Drive with caution.", "street": "Tennessee St", "city": "Redlands", "state": "CA", "distance": 0.041}, {"id": "A-670216", "lat": 34.67887, "lng": -81.02917, "severity": 3, "startTime": "3/21/2022 8:31", "weatherCondition": "Fair", "temperature": 39.0, "humidity": 87.0, "visibility": 10.0, "windSpeed": 3.0, "description": "Lane blocked due to crash on I-77 Northbound at Exit 55 SC-97 Great Falls Rd.", "street": "I-77", "city": "Richburg", "state": "SC", "distance": 0.0}, {"id": "A-571850", "lat": 29.78413, "lng": -95.45587, "severity": 1, "startTime": "7/8/2022 8:26", "weatherCondition": "Partly Cloudy", "temperature": 86.0, "humidity": 74.0, "visibility": 10.0, "windSpeed": 8.0, "description": "Crash on Post Oak Rd in Lazy Brook/Timbergrove.", "street": "Old Katy Rd", "city": "Houston", "state": "TX", "distance": 0.0}, {"id": "A-574481", "lat": 36.84557, "lng": -76.26116, "severity": 3, "startTime": "7/5/2022 18:19", "weatherCondition": "Mostly Cloudy", "temperature": 91.0, "humidity": 43.0, "visibility": 10.0, "windSpeed": 10.0, "description": "Right lane closed due to crash on I-264 Westbound at Exit 12 Ballentine Blvd.", "street": "I-264", "city": "Norfolk", "state": "VA", "distance": 0.0}, {"id": "A-4637703", "lat": 39.53381, "lng": -86.8029, "severity": 4, "startTime": "5/31/2022 19:52", "weatherCondition": "Fair", "temperature": 82.0, "humidity": 54.0, "visibility": 10.0, "windSpeed": 7.0, "description": "Incident on US-231 NB near HIGH ST Road closed. Take alternate route.", "street": "N Main St", "city": "Cloverdale", "state": "IN", "distance": 0.026}, {"id": "A-4895815", "lat": 39.86333, "lng": -105.20999, "severity": 4, "startTime": "12/14/2022 17:57", "weatherCondition": "Mostly Cloudy / Windy", "temperature": 32.0, "humidity": 30.0, "visibility": 10.0, "windSpeed": 23.0, "description": "Between Candelas Parkway and CO 93 (Arvada) at Mile Point 9. Road closed expect delays due to a crash.", "street": "Coal Creek Canyon Rd", "city": "Arvada", "state": "CO", "distance": 0.182}, {"id": "A-531641", "lat": 30.0927, "lng": -95.43515, "severity": 3, "startTime": "8/20/2022 16:14", "weatherCondition": "Mostly Cloudy", "temperature": 83.0, "humidity": 69.0, "visibility": 10.0, "windSpeed": 13.0, "description": "Left hand shoulder blocked HOV lane blocked and left lane blocked due to crash on I-45 I-45 Northbound before Exits 70A 72.", "street": "I-45", "city": "Spring", "state": "TX", "distance": 0.0}, {"id": "A-590599", "lat": 39.77019, "lng": -105.02524, "severity": 1, "startTime": "6/17/2022 8:04", "weatherCondition": "Fair", "temperature": 70.0, "humidity": 68.0, "visibility": 10.0, "windSpeed": 5.0, "description": "Crash on Federal Blvd between 39th Ave and Denver Pl.", "street": "Federal Blvd", "city": "Denver", "state": "CO", "distance": 0.20999999344348907}, {"id": "A-5396481", "lat": 40.77227, "lng": -73.91972, "severity": 2, "startTime": "5/4/2022 15:07", "weatherCondition": "Cloudy", "temperature": 58.0, "humidity": 84.0, "visibility": 5.0, "windSpeed": 3.0, "description": "MTA Bridges &amp; Tunnels: Crash on Robert F. Kennedy Bridge northbound Queens Span (New York) 1 Right lane of 4 lanes blocked", "street": "I-278", "city": "Astoria", "state": "NY", "distance": 1.425}, {"id": "A-568101", "lat": 32.90818, "lng": -96.81435, "severity": 1, "startTime": "7/13/2022 6:31", "weatherCondition": "Fair", "temperature": 82.0, "humidity": 62.0, "visibility": 10.0, "windSpeed": 5.0, "description": "Lane blocked on exit ramp due to crash on Dallas North Tlwy Northbound at Forest Ln.", "street": "Eastern Ave", "city": "Dallas", "state": "TX", "distance": 0.0}, {"id": "A-540608", "lat": 33.76836, "lng": -117.86746, "severity": 3, "startTime": "8/10/2022 16:11", "weatherCondition": "Mostly Cloudy", "temperature": 85.0, "humidity": 40.0, "visibility": 10.0, "windSpeed": 8.0, "description": "Lane blocked due to crash on I-5 Northbound before Main St.", "street": "N Main St", "city": "Santa Ana", "state": "CA", "distance": 0.0}, {"id": "A-4528005", "lat": 35.25122, "lng": -80.89382, "severity": 2, "startTime": "47:00.0", "weatherCondition": "Light Rain", "temperature": 59.0, "humidity": 96.0, "visibility": 7.0, "windSpeed": 14.0, "description": "The 3 right lanes are closed at Exit 35 [Glenwood Dr].", "street": "S I-85 Service Rd", "city": "Charlotte", "state": "NC", "distance": 0.193}, {"id": "A-3926117", "lat": 43.01594, "lng": -78.28466, "severity": 2, "startTime": "07:56.0", "weatherCondition": "Mostly Cloudy", "temperature": 77.0, "humidity": 71.0, "visibility": 10.0, "windSpeed": 7.0, "description": "injury crash right lane blocked I-90 - NYS Thruway westbound between exit 48 and exit 48A", "street": "I-90 W", "city": "Batavia", "state": "NY", "distance": 2.416}, {"id": "A-529508", "lat": 41.85886, "lng": -88.10251, "severity": 1, "startTime": "8/23/2022 8:59", "weatherCondition": "Fair", "temperature": 72.0, "humidity": 68.0, "visibility": 10.0, "windSpeed": 5.0, "description": "Crash on CR-23 Naperville Rd at IL-38 Roosevelt Rd.", "street": "E Roosevelt Rd", "city": "Wheaton", "state": "IL", "distance": 0.0}, {"id": "A-4428995", "lat": 39.64765, "lng": -106.58299, "severity": 4, "startTime": "12/13/2022 4:30", "weatherCondition": "Cloudy", "temperature": 21.0, "humidity": 74.0, "visibility": 10.0, "windSpeed": 7.0, "description": "Between Exit 167: Avon and Exit 157: CO 131; Wolcott (Edwards) from Mile Point 163 to Mile Point 157.5. Road closed expect delays due to a crash.", "street": "I-70 W", "city": "Edwards", "state": "CO", "distance": 5.088}, {"id": "A-3711425", "lat": 40.03843, "lng": -75.35347, "severity": 4, "startTime": "00:00.0", "weatherCondition": "Mostly Cloudy", "temperature": 84.0, "humidity": 30.0, "visibility": 10.0, "windSpeed": 6.0, "description": "Crash on I-476 southbound between Exit 13: US 30 - ST DAVIDS/VILLANOVA and Exit 9: PA 3 - UPPER DARBY/BROOMALL. All lanes closed.", "street": "I-476 S", "city": "Wayne", "state": "PA", "distance": 0.387}, {"id": "A-624636", "lat": 33.46645, "lng": -82.08611, "severity": 1, "startTime": "5/12/2022 19:23", "weatherCondition": "Light Rain", "temperature": 73.0, "humidity": 68.0, "visibility": 9.0, "windSpeed": 13.0, "description": "Crash on Augusta West Pkwy in Lake Aumond.", "street": "Augusta West Pkwy", "city": "Augusta", "state": "GA", "distance": 0.0}, {"id": "A-582646", "lat": 35.29005, "lng": -80.76339, "severity": 1, "startTime": "6/27/2022 5:52", "weatherCondition": "Fair", "temperature": 77.0, "humidity": 65.0, "visibility": 10.0, "windSpeed": 7.0, "description": "Crash on Ikea Blvd at University City Blvd.", "street": "University City Blvd", "city": "Charlotte", "state": "NC", "distance": 0.0}, {"id": "A-625669", "lat": 32.73803, "lng": -97.45159, "severity": 3, "startTime": "5/11/2022 9:24", "weatherCondition": "Mostly Cloudy", "temperature": 79.0, "humidity": 69.0, "visibility": 10.0, "windSpeed": 16.0, "description": "Right lane blocked due to crash on I-30 Eastbound at Exit 7A / Cherry Lane.", "street": "West Fwy", "city": "Fort Worth", "state": "TX", "distance": 0.0}, {"id": "A-5146072", "lat": 45.08382, "lng": -93.40232, "severity": 2, "startTime": "12/23/2022 18:48", "weatherCondition": "Haze", "temperature": -3.0, "humidity": 68.0, "visibility": 6.0, "windSpeed": 17.0, "description": "Incident on US-169 SB near I-94 Drive with caution.", "street": "US-169 S", "city": "Osseo", "state": "MN", "distance": 0.077}, {"id": "A-514123", "lat": 37.02634, "lng": -80.72937, "severity": 3, "startTime": "9/7/2022 9:11", "weatherCondition": "Partly Cloudy", "temperature": 68.0, "humidity": 89.0, "visibility": 10.0, "windSpeed": 3.0, "description": "Lane blocked due to crash on I-81 Northbound at Exits 94 94B VA-99 Count Pulaski Dr.", "street": "I-81", "city": "Pulaski", "state": "VA", "distance": 0.0}, {"id": "A-572904", "lat": 39.39371, "lng": -75.66311, "severity": 1, "startTime": "7/7/2022 7:46", "weatherCondition": "Light Rain", "temperature": 70.0, "humidity": 93.0, "visibility": 4.0, "windSpeed": 10.0, "description": "Crash on US-13 Dupont Pkwy at Nancy Dr.", "street": "Nancy Dr", "city": "Townsend", "state": "DE", "distance": 0.0}, {"id": "A-4092077", "lat": 35.1717, "lng": -80.74629, "severity": 4, "startTime": "7/27/2022 22:39", "weatherCondition": "Mostly Cloudy", "temperature": 83.0, "humidity": 69.0, "visibility": 10.0, "windSpeed": 8.0, "description": "The road is closed near Sharon Forest Dr.\u00c2", "street": "E Independence Blvd", "city": "Charlotte", "state": "NC", "distance": 0.034}, {"id": "A-593632", "lat": 34.75328, "lng": -82.26955, "severity": 1, "startTime": "6/14/2022 18:32", "weatherCondition": "Fair", "temperature": 91.0, "humidity": 52.0, "visibility": 10.0, "windSpeed": 6.0, "description": "Crash on Maple St at Old Stage Rd.", "street": "Old Stage Rd", "city": "Simpsonville", "state": "SC", "distance": 0.0}, {"id": "A-530429", "lat": 41.46232, "lng": -81.65719, "severity": 3, "startTime": "8/22/2022 13:56", "weatherCondition": "Light Rain", "temperature": 70.0, "humidity": 87.0, "visibility": 6.0, "windSpeed": 7.0, "description": "Two lanes blocked due to crash on I-77 Northbound after Exit 159B Fleet Ave.", "street": "I-77", "city": "Cleveland", "state": "OH", "distance": 0.0}, {"id": "A-542705", "lat": 27.99825, "lng": -82.58937, "severity": 1, "startTime": "8/9/2022 4:52", "weatherCondition": "Fair", "temperature": 78.0, "humidity": 84.0, "visibility": 10.0, "windSpeed": 3.0, "description": "Crash on Tudor Dr near FL-580 Hillsborough Ave.", "street": "Tudor Dr", "city": "Tampa", "state": "FL", "distance": 0.0}, {"id": "A-598420", "lat": 41.87532, "lng": -87.68565, "severity": 3, "startTime": "6/9/2022 8:40", "weatherCondition": "Partly Cloudy", "temperature": 64.0, "humidity": 70.0, "visibility": 10.0, "windSpeed": 10.0, "description": "Lane blocked due to crash on I-290 Eisenhower Expy Eastbound at Exit 27 Western Ave.", "street": "Eisenhower Expy", "city": "Chicago", "state": "IL", "distance": 0.0}, {"id": "A-3979067", "lat": 38.38027, "lng": -75.06786, "severity": 4, "startTime": "05:30.0", "weatherCondition": "Fair", "temperature": 63.0, "humidity": 72.0, "visibility": 10.0, "windSpeed": 6.0, "description": "MD 528 NORTH/SOUTH AT 56TH ST", "street": "Coastal Hwy", "city": "Ocean City", "state": "MD", "distance": 0.011}, {"id": "A-4535965", "lat": 36.30588, "lng": -100.80264, "severity": 4, "startTime": "7/26/2022 12:16", "weatherCondition": "Fair", "temperature": 96.0, "humidity": 23.0, "visibility": 10.0, "windSpeed": 18.0, "description": "Incident on US-83 NB near TX-70 Road closed. Take alternate route.", "street": "Highway 70", "city": "Perryton", "state": "TX", "distance": 1.901}, {"id": "A-4734078", "lat": 38.56537, "lng": -121.35068, "severity": 4, "startTime": "57:00.0", "weatherCondition": "Mostly Cloudy", "temperature": 41.0, "humidity": 100.0, "visibility": 10.0, "windSpeed": 7.0, "description": "Incident on FOLSOM BLVD near MAYHEW RD Road closed. Take alternate route.", "street": "Mayhew Rd", "city": "Sacramento", "state": "CA", "distance": 0.066}, {"id": "A-3803036", "lat": 38.11912, "lng": -77.62997, "severity": 4, "startTime": "10/17/2022 17:39", "weatherCondition": "Cloudy", "temperature": 69.0, "humidity": 52.0, "visibility": 10.0, "windSpeed": 10.0, "description": "On Rt. 738 in the County of Spotsylvania in the vicinity of Rt. 9804N/S (Spotsylvania County) motorists can expect delays due to a vehicle crash. All north lanes are closed.", "street": "Partlow Rd", "city": "Spotsylvania", "state": "VA", "distance": 0.037000000000000005}, {"id": "A-712143", "lat": 34.05989, "lng": -118.21493, "severity": 3, "startTime": "2/13/2022 10:19", "weatherCondition": "Fair", "temperature": 80.0, "humidity": 13.0, "visibility": 10.0, "windSpeed": 0.0, "description": "#2 lane blocked due to crash on I-5 Southbound at I-10.", "street": "I-5", "city": "Los Angeles", "state": "CA", "distance": 0.0}, {"id": "A-5341780", "lat": 39.62718, "lng": -121.94596, "severity": 2, "startTime": "1/9/2022 23:21", "weatherCondition": "Fair", "temperature": 43.0, "humidity": 87.0, "visibility": 10.0, "windSpeed": 0.0, "description": "Incident on RIVER RD near ORD FERRY RD Drive with caution.", "street": "River Rd", "city": "Chico", "state": "CA", "distance": 0.7}, {"id": "A-569738", "lat": 30.2893, "lng": -81.98194, "severity": 3, "startTime": "7/11/2022 17:06", "weatherCondition": "Rain", "temperature": 81.0, "humidity": 94.0, "visibility": 4.0, "windSpeed": 12.0, "description": "Left lane blocked due to crash on I-10 Eastbound at Exit 343 US-301.", "street": "FL-8 W", "city": "Jacksonville", "state": "FL", "distance": 0.0}, {"id": "A-4237773", "lat": 37.51773, "lng": -77.20067, "severity": 4, "startTime": "9/5/2022 0:28", "weatherCondition": "Partly Cloudy", "temperature": 72.0, "humidity": 81.0, "visibility": 10.0, "windSpeed": 6.0, "description": "On I-64 at mile marker 204.7 in the County of New Kent motorists can expect delays due to a multi-vehicle crash. All west lanes are closed.", "street": "I-64 W", "city": "Quinton", "state": "VA", "distance": 0.471}, {"id": "A-580253", "lat": 32.73799, "lng": -97.32031, "severity": 3, "startTime": "6/29/2022 7:52", "weatherCondition": "Fair", "temperature": 76.0, "humidity": 52.0, "visibility": 10.0, "windSpeed": 7.0, "description": "One lane blocked and shoulder blocked due to crash on I-35W Northbound at Exits 49B Hattie St.", "street": "South Fwy", "city": "Fort Worth", "state": "TX", "distance": 0.0}, {"id": "A-5371001", "lat": 41.19613, "lng": -73.1242, "severity": 2, "startTime": "11/12/2022 6:46", "weatherCondition": "Cloudy", "temperature": 64.0, "humidity": 100.0, "visibility": 10.0, "windSpeed": 17.0, "description": "Incident on I-95 SB near EXIT 33 Left lane blocked.", "street": "Governor John Davis Lodge Tpke", "city": "Stratford", "state": "CT", "distance": 0.183}, {"id": "A-4079732", "lat": 40.73251, "lng": -74.12515, "severity": 2, "startTime": "9/30/2022 19:42", "weatherCondition": "Cloudy", "temperature": 60.0, "humidity": 64.0, "visibility": 10.0, "windSpeed": 8.0, "description": "NJ Turnpike Auth.: Crash on New Jersey Turnpike - Western Spur northbound North of Interchange 15E - US 1&amp;9 (Newark) 2 lanes of 3 lanes blocked", "street": "New Jersey Tpke", "city": "Newark", "state": "NJ", "distance": 1.415}, {"id": "A-4021414", "lat": 33.77917, "lng": -84.23959, "severity": 4, "startTime": "46:00.0", "weatherCondition": "Fair", "temperature": 41.0, "humidity": 47.0, "visibility": 10.0, "windSpeed": 12.0, "description": "Incident on GA-10 WB near I-285 Road closed. Take alternate route.", "street": "Memorial Dr", "city": "Decatur", "state": "GA", "distance": 0.058}, {"id": "A-635684", "lat": 32.91602, "lng": -117.11594, "severity": 3, "startTime": "4/27/2022 16:58", "weatherCondition": "Fair", "temperature": 62.0, "humidity": 65.0, "visibility": 10.0, "windSpeed": 7.0, "description": "Slow lane blocked due to crash on I-15 Northbound at Exit 16 Mira Mesa Blvd.", "street": "Escondido Fwy N", "city": "San Diego", "state": "CA", "distance": 0.0}, {"id": "A-3971661", "lat": 35.42524, "lng": -94.34396, "severity": 4, "startTime": "12/13/2022 12:13", "weatherCondition": "Heavy T-Storm", "temperature": 55.0, "humidity": 100.0, "visibility": 1.0, "windSpeed": 3.0, "description": "Incident on I-540 SB near I-540 Road closed. Take alternate route.", "street": "I-540", "city": "Van Buren", "state": "AR", "distance": 0.192}, {"id": "A-671628", "lat": 25.81282, "lng": -80.20715, "severity": 3, "startTime": "3/18/2022 21:12", "weatherCondition": "Fair", "temperature": 78.0, "humidity": 79.0, "visibility": 10.0, "windSpeed": 9.0, "description": "One lane blocked due to crash on I-95 Southbound at Exits 4 4B FL-112-TOLL Airport Expy.", "street": "Airport Expy W", "city": "Miami", "state": "FL", "distance": 0.0}, {"id": "A-755309", "lat": 30.1999, "lng": -81.55733, "severity": 3, "startTime": "1/4/2022 14:19", "weatherCondition": "Mostly Cloudy", "temperature": 64.0, "humidity": 72.0, "visibility": 10.0, "windSpeed": 18.0, "description": "Right lane blocked due to accident on I-95 Northbound at Exit 340 FL-115 Southside Blvd.", "street": "I-95", "city": "Jacksonville", "state": "FL", "distance": 0.0}, {"id": "A-512453", "lat": 39.73947, "lng": -84.20472, "severity": 3, "startTime": "9/8/2022 14:28", "weatherCondition": "Partly Cloudy", "temperature": 78.0, "humidity": 48.0, "visibility": 10.0, "windSpeed": 7.0, "description": "Right hand shoulder blocked due to crash on I-75 Northbound after Exit 51 Edwin C Moses Blvd.", "street": "I-75", "city": "Dayton", "state": "OH", "distance": 0.0}, {"id": "A-5354210", "lat": 37.1824, "lng": -81.42901, "severity": 2, "startTime": "11/17/2022 7:37", "weatherCondition": "Cloudy", "temperature": 21.0, "humidity": 71.0, "visibility": 10.0, "windSpeed": 8.0, "description": "On US-19 North in the County of Tazewell in the vicinity of Rt. 1402N/S (Tazewell County) motorists can expect delays due to a multi-vehicle crash. Lane closures exist.", "street": "E River Rd", "city": "North Tazewell", "state": "VA", "distance": 0.069}, {"id": "A-4701826", "lat": 37.4553, "lng": -79.84212, "severity": 4, "startTime": "2/8/2022 19:54", "weatherCondition": "Fair", "temperature": 40.0, "humidity": 47.0, "visibility": 10.0, "windSpeed": 0.0, "description": "I-81 N is closed from US-220/Exit 150 (I-81) to VA-640/Exit 156 (I-81) due to accident.", "street": "I-81", "city": "Fincastle", "state": "VA", "distance": 0.418}, {"id": "A-606969", "lat": 34.30136, "lng": -118.47741, "severity": 3, "startTime": "5/30/2022 13:00", "weatherCondition": "Fair", "temperature": 75.0, "humidity": 41.0, "visibility": 10.0, "windSpeed": 12.0, "description": "Right hand shoulder blocked due to crash on I-5 Northbound before Exit 159B / Roxford St.", "street": "159A", "city": "Sylmar", "state": "CA", "distance": 0.0}, {"id": "A-3804013", "lat": 41.66356, "lng": -88.22348, "severity": 4, "startTime": "9/7/2022 14:48", "weatherCondition": "Partly Cloudy", "temperature": 79.0, "humidity": 51.0, "visibility": 10.0, "windSpeed": 7.0, "description": "Road closed due to accident.", "street": "S 248th Ave", "city": "Plainfield", "state": "IL", "distance": 0.16}, {"id": "A-655575", "lat": 40.43868, "lng": -80.15378, "severity": 3, "startTime": "4/9/2022 12:49", "weatherCondition": "Mostly Cloudy", "temperature": 44.0, "humidity": 63.0, "visibility": 10.0, "windSpeed": 18.0, "description": "Lane blocked due to crash on I-376 Eastbound at Exit 61 Ridge Rd.", "street": "Ridge Rd", "city": "Pittsburgh", "state": "PA", "distance": 0.0}, {"id": "A-634594", "lat": 33.72613, "lng": -81.84314, "severity": 1, "startTime": "4/28/2022 16:20", "weatherCondition": "Fair", "temperature": 76.0, "humidity": 27.0, "visibility": 10.0, "windSpeed": 5.0, "description": "Crash on SC-19 at Greenhouse Rd.", "street": "SE Diggs Rd", "city": "Trenton", "state": "SC", "distance": 0.0}, {"id": "A-5321041", "lat": 28.5386, "lng": -81.47119, "severity": 2, "startTime": "45:44.0", "weatherCondition": "Thunder in the Vicinity", "temperature": 87.0, "humidity": 67.0, "visibility": 10.0, "windSpeed": 10.0, "description": "Stationary traffic on County Hwy-526 - County Hwy-435 from FL-435/S Kirkman Rd (Old Winter Garden Rd/CR-526) to S Hiawassee Rd (Old Winter Garden Rd/CR-526) due to accident.", "street": "Old Winter Garden Rd", "city": "Orlando", "state": "FL", "distance": 0.278}, {"id": "A-4234788", "lat": 42.63827, "lng": -83.75129, "severity": 4, "startTime": "8/14/2022 20:19", "weatherCondition": "Mostly Cloudy", "temperature": 68.0, "humidity": 78.0, "visibility": 10.0, "windSpeed": 3.0, "description": "Incident on US-23 SB near M-59 Road closed. Take alternate route.", "street": "US-23 S", "city": "Hartland", "state": "MI", "distance": 0.6659999999999999}, {"id": "A-586855", "lat": 34.71345, "lng": -82.91326, "severity": 1, "startTime": "6/21/2022 19:55", "weatherCondition": "Fair", "temperature": 88.0, "humidity": 40.0, "visibility": 10.0, "windSpeed": 0.0, "description": "Crash on Old Clemson Hwy at Corinth Dr.", "street": "Old Clemson Hwy", "city": "Seneca", "state": "SC", "distance": 0.0}, {"id": "A-537675", "lat": 43.64822, "lng": -70.33163, "severity": 3, "startTime": "8/14/2022 11:51", "weatherCondition": "Partly Cloudy", "temperature": 76.0, "humidity": 43.0, "visibility": 10.0, "windSpeed": 3.0, "description": "Left lane blocked due to crash on I-95 Gold Star Memorial Hwy Southbound at Exit 46 Skyway Dr.", "street": "I-95 S", "city": "Portland", "state": "ME", "distance": 0.0}, {"id": "A-3883357", "lat": 33.58254, "lng": -111.88979, "severity": 2, "startTime": "18:00.0", "weatherCondition": "Fair", "temperature": 72.0, "humidity": 8.0, "visibility": 10.0, "windSpeed": 15.0, "description": "Stationary traffic from E Shea Blvd to AZ-101 Loop N due to accident.", "street": "E Shea Blvd", "city": "Scottsdale", "state": "AZ", "distance": 0.214}, {"id": "A-4613272", "lat": 34.93586, "lng": -80.50478, "severity": 4, "startTime": "1/20/2022 16:50", "weatherCondition": "Rain", "temperature": 43.0, "humidity": 93.0, "visibility": 3.0, "windSpeed": 15.0, "description": "Incident on MACEDONIA CHURCH RD WB near US-601 Road closed. Take alternate route.", "street": "Macedonia Church Rd", "city": "Monroe", "state": "NC", "distance": 0.39}, {"id": "A-603747", "lat": 37.87488, "lng": -96.8465, "severity": 2, "startTime": "6/2/2022 8:26", "weatherCondition": "Fair", "temperature": 62.0, "humidity": 78.0, "visibility": 10.0, "windSpeed": 3.0, "description": "Crash on I-35 Northbound after Exit 76 US-77.", "street": "", "city": "El Dorado", "state": "KS", "distance": 0.0}, {"id": "A-5359614", "lat": 34.26827, "lng": -117.44932, "severity": 2, "startTime": "5/27/2022 14:34", "weatherCondition": "Fair", "temperature": 81.0, "humidity": 24.0, "visibility": 5.0, "windSpeed": 5.0, "description": "Incident on I-15 NB near SIERRA AVE Drive with caution.", "street": "Barstow Fwy N", "city": "San Bernardino", "state": "CA", "distance": 1.472}, {"id": "A-537853", "lat": 41.06219, "lng": -81.47633, "severity": 4, "startTime": "8/13/2022 19:47", "weatherCondition": "Partly Cloudy", "temperature": 73.0, "humidity": 46.0, "visibility": 10.0, "windSpeed": 6.0, "description": "One lane blocked due to crash on I-76 Eastbound from Exits 23A/ OH-8 I-77 to Exit 25B / Englewood Ave.", "street": "Englewood Ave", "city": "Akron", "state": "OH", "distance": 2.490000009536743}, {"id": "A-4195043", "lat": 28.46775, "lng": -81.33076, "severity": 2, "startTime": "17:57.0", "weatherCondition": "Partly Cloudy / Windy", "temperature": 80.0, "humidity": 47.0, "visibility": 10.0, "windSpeed": 24.0, "description": "Stationary traffic from Quando Dr to Lee Vista Blvd / Shadow Ridge Dr due to accident.", "street": "Conway Rd", "city": "Orlando", "state": "FL", "distance": 0.159}, {"id": "A-5056659", "lat": 39.29431, "lng": -102.27489, "severity": 4, "startTime": "3/6/2022 10:52", "weatherCondition": "Cloudy", "temperature": 22.0, "humidity": 66.0, "visibility": 10.0, "windSpeed": 12.0, "description": "Between Exit 438: Rose Avenue (near Burlington) and Exit 361: Limon (near Limon) from Mile Point 438 to Mile Point 362. Road closed expect delays due to a crash.", "street": "I-70 W", "city": "Burlington", "state": "CO", "distance": 7.9689999999999985}, {"id": "A-4494812", "lat": 34.07369, "lng": -83.86784, "severity": 4, "startTime": "12/19/2022 0:50", "weatherCondition": "Fair", "temperature": 32.0, "humidity": 60.0, "visibility": 10.0, "windSpeed": 0.0, "description": "Incident on GA-124 WB near QUAIL POINT RUN Road closed. Take alternate route.", "street": "Hog Mountain Rd NE", "city": "Hoschton", "state": "GA", "distance": 0.054000000000000006}, {"id": "A-5278387", "lat": 42.25828, "lng": -83.68375, "severity": 4, "startTime": "5/3/2022 17:41", "weatherCondition": "Fog", "temperature": 52.0, "humidity": 88.0, "visibility": 1.0, "windSpeed": 12.0, "description": "Incident on US-23 NB near M-17 Road closed. Take alternate route.", "street": "US-23", "city": "Ann Arbor", "state": "MI", "distance": 0.961}, {"id": "A-713679", "lat": 34.03168, "lng": -118.41895, "severity": 3, "startTime": "2/11/2022 7:19", "weatherCondition": "Fair", "temperature": 58.0, "humidity": 41.0, "visibility": 10.0, "windSpeed": 5.0, "description": "Two lanes blocked due to crash on I-10 Eastbound at I Exit 4 / Overland Ave / National Blvd.", "street": "Rosa Parks Fwy", "city": "Los Angeles", "state": "CA", "distance": 0.0}, {"id": "A-582349", "lat": 28.54315, "lng": -81.31055, "severity": 1, "startTime": "6/27/2022 8:38", "weatherCondition": "Fair", "temperature": 83.0, "humidity": 77.0, "visibility": 10.0, "windSpeed": 3.0, "description": "Crash on FL-436 Semoran Blvd near Kalmia Dr.", "street": "Kalmia Dr", "city": "Orlando", "state": "FL", "distance": 0.0}, {"id": "A-4234488", "lat": 41.45977, "lng": -75.65815, "severity": 4, "startTime": "1/12/2022 9:35", "weatherCondition": "Fair", "temperature": 24.0, "humidity": 55.0, "visibility": 10.0, "windSpeed": 5.0, "description": "Crash on BROOKLYN ST / SCRANTON-CARBONDALE HW / MAIN ST / CANAAN ST / ROOSEVELT HW westbound between Exit: I-81 NORTH/US 6 WEST - BINGHAMTON and Exit: US 11 NORTH - CLARKS SUMMIT. All lanes closed.", "street": "Scranton Carbondale Hwy", "city": "Scranton", "state": "PA", "distance": 0.126}, {"id": "A-753975", "lat": 41.69875, "lng": -71.90284, "severity": 3, "startTime": "1/5/2022 7:11", "weatherCondition": "Cloudy", "temperature": 23.0, "humidity": 92.0, "visibility": 10.0, "windSpeed": 0.0, "description": "Right lane blocked due to accident on I-395 Governor John Davis Lodge Tpke Southbound after Exit 32 CT-14 Main St.", "street": "Governor John Davis Lodge Tpke", "city": "Plainfield", "state": "CT", "distance": 0.0}, {"id": "A-5127557", "lat": 41.55671, "lng": -76.41095, "severity": 4, "startTime": "03:00.0", "weatherCondition": "Haze", "temperature": 41.0, "humidity": 76.0, "visibility": 2.0, "windSpeed": 0.0, "description": "Crash on US 220 both directions between CHURCHILL ST and FRENCH CREEK RD. All lanes closed.", "street": "Route 220", "city": "Dushore", "state": "PA", "distance": 2.636}, {"id": "A-514174", "lat": 30.21822, "lng": -92.05791, "severity": 1, "startTime": "9/7/2022 8:06", "weatherCondition": "Fair", "temperature": 76.0, "humidity": 87.0, "visibility": 10.0, "windSpeed": 6.0, "description": "Crash on Dulles Dr near Luke St.", "street": "Luke St", "city": "Lafayette", "state": "LA", "distance": 0.0}, {"id": "A-4737947", "lat": 33.97663, "lng": -84.34476, "severity": 4, "startTime": "25:00.0", "weatherCondition": "Cloudy", "temperature": 42.0, "humidity": 70.0, "visibility": 10.0, "windSpeed": 7.0, "description": "Incident on GA-400 SB near NORTHRIDGE RD Road closed. Take alternate route.", "street": "GA-400", "city": "Atlanta", "state": "GA", "distance": 1.947}, {"id": "A-4333108", "lat": 45.693, "lng": -121.52367, "severity": 4, "startTime": "8/23/2022 13:18", "weatherCondition": "Fair", "temperature": 78.0, "humidity": 48.0, "visibility": 10.0, "windSpeed": 5.0, "description": "A crash has all lanes closed between Guignard and Eliot. Use an alternate route.", "street": "12th St", "city": "Hood River", "state": "OR", "distance": 0.6709999999999999}, {"id": "A-4161132", "lat": 25.78425, "lng": -80.28893, "severity": 2, "startTime": "8/29/2022 16:49", "weatherCondition": "Mostly Cloudy", "temperature": 86.0, "humidity": 74.0, "visibility": 10.0, "windSpeed": 8.0, "description": "Incident on SR-836 WB near NW 42ND AVE Center lane blocked. Expect Delays.", "street": "Dolphin Expy W", "city": "Miami", "state": "FL", "distance": 0.985}, {"id": "A-592562", "lat": 27.7919, "lng": -82.35682, "severity": 3, "startTime": "6/15/2022 16:51", "weatherCondition": "Fair", "temperature": 93.0, "humidity": 52.0, "visibility": 10.0, "windSpeed": 7.0, "description": "Right lane blocked due to multi-vehicle crash on I-75 Southbound at Exit 250 Gibsonton Dr.", "street": "Big Bend Rd", "city": "Apollo Beach", "state": "FL", "distance": 0.0}, {"id": "A-522856", "lat": 35.74885, "lng": -78.71776, "severity": 1, "startTime": "8/30/2022 7:21", "weatherCondition": "Mostly Cloudy", "temperature": 73.0, "humidity": 93.0, "visibility": 10.0, "windSpeed": 9.0, "description": "Crash on Tryon Rd at Avent Ferry Rd.", "street": "Avent Ferry Rd", "city": "Raleigh", "state": "NC", "distance": 0.0}, {"id": "A-710396", "lat": 30.42319, "lng": -91.13874, "severity": 3, "startTime": "2/14/2022 19:19", "weatherCondition": "Fair", "temperature": 52.0, "humidity": 47.0, "visibility": 10.0, "windSpeed": 0.0, "description": "Left lane blocked due to crash on I-10 Westbound at Exit 158 College Dr.", "street": "I-10 W", "city": "Baton Rouge", "state": "LA", "distance": 0.0}, {"id": "A-5108812", "lat": 34.7225, "lng": -81.6632, "severity": 2, "startTime": "9/16/2022 22:04", "weatherCondition": "Fair", "temperature": 68.0, "humidity": 78.0, "visibility": 10.0, "windSpeed": 0.0, "description": "Incident on LUKESVILLE RD near MAIN ST Drive with caution.", "street": "Lukesville Rd", "city": "Buffalo", "state": "SC", "distance": 0.038}, {"id": "A-4411661", "lat": 36.15072, "lng": -78.72177, "severity": 4, "startTime": "1/11/2022 0:12", "weatherCondition": "Fair", "temperature": 32.0, "humidity": 48.0, "visibility": 10.0, "windSpeed": 6.0, "description": "Near Butner / Mile Marker 191 Heading North. A lane is closed near exit 191( NC 56).", "street": "I-85", "city": "Butner", "state": "NC", "distance": 7.279}, {"id": "A-580680", "lat": 40.08286, "lng": -86.4766, "severity": 1, "startTime": "6/28/2022 19:53", "weatherCondition": "Fair", "temperature": 78.0, "humidity": 36.0, "visibility": 10.0, "windSpeed": 5.0, "description": "Crash on IN-39 at County Road 300.", "street": "IN-39", "city": "Lebanon", "state": "IN", "distance": 0.0}, {"id": "A-548142", "lat": 44.98172, "lng": -93.24211, "severity": 1, "startTime": "8/2/2022 13:48", "weatherCondition": "Fair / Windy", "temperature": 91.0, "humidity": 53.0, "visibility": 10.0, "windSpeed": 21.0, "description": "Crash on CR-36 University Ave at 10th Ave.", "street": "10th Ave SE", "city": "Minneapolis", "state": "MN", "distance": 0.0}, {"id": "A-529376", "lat": 33.88421, "lng": -117.52465, "severity": 2, "startTime": "8/23/2022 7:24", "weatherCondition": "Fair", "temperature": 65.0, "humidity": 90.0, "visibility": 9.0, "windSpeed": 3.0, "description": "#1 lane blocked due to crash on CA-91 Westbound after Exit 53 Mckinley St.", "street": "CA-91", "city": "Corona", "state": "CA", "distance": 0.0}, {"id": "A-4010463", "lat": 37.90024, "lng": -85.69669, "severity": 4, "startTime": "8/1/2022 21:00", "weatherCondition": "Fair", "temperature": 81.0, "humidity": 77.0, "visibility": 10.0, "windSpeed": 13.0, "description": "Northbound all lanes blocked.", "street": "I-65", "city": "Lebanon Junction", "state": "KY", "distance": 0.344}, {"id": "A-4576242", "lat": 38.82974, "lng": -77.11397, "severity": 2, "startTime": "55:46.0", "weatherCondition": "Mostly Cloudy", "temperature": 82.0, "humidity": 51.0, "visibility": 10.0, "windSpeed": 14.0, "description": "Incident on I-395 NB near MM 9 Expect delays.", "street": "Seminary Rd", "city": "Alexandria", "state": "VA", "distance": 0.038}, {"id": "A-4064878", "lat": 41.79714, "lng": -85.66254, "severity": 4, "startTime": "42:50.0", "weatherCondition": "Fair", "temperature": 46.0, "humidity": 44.0, "visibility": 10.0, "windSpeed": 10.0, "description": "SB US-131 at US-12 Niles/Coldwater", "street": "US Highway 131 N", "city": "White Pigeon", "state": "MI", "distance": 0.066}, {"id": "A-590695", "lat": 32.91803, "lng": -96.85596, "severity": 3, "startTime": "6/17/2022 8:10", "weatherCondition": "Fair", "temperature": 81.0, "humidity": 61.0, "visibility": 10.0, "windSpeed": 5.0, "description": "One lane blocked and shoulder blocked due to crash on I-635 Eastbound before Exit 24 Marsh Ln.", "street": "Marsh Ln", "city": "Dallas", "state": "TX", "distance": 0.0}, {"id": "A-4244852", "lat": 39.21848, "lng": -76.7269, "severity": 4, "startTime": "15:30.0", "weatherCondition": "Fair", "temperature": 21.0, "humidity": 44.0, "visibility": 10.0, "windSpeed": 6.0, "description": "I-95 SOUTH PRIOR TO EXIT 43B MD 100 MD 100 (SB)", "street": "I-95", "city": "Elkridge", "state": "MD", "distance": 1.95}, {"id": "A-4662471", "lat": 34.13967, "lng": -80.9177, "severity": 2, "startTime": "52:26.0", "weatherCondition": "Mostly Cloudy", "temperature": 63.0, "humidity": 50.0, "visibility": 10.0, "windSpeed": 3.0, "description": "Stationary traffic on Clemson Rd from Longtown Rd to Hard Scrabble Rd due to accident.", "street": "Clemson Rd", "city": "Columbia", "state": "SC", "distance": 0.211}, {"id": "A-4544881", "lat": 39.08883, "lng": -76.99525, "severity": 4, "startTime": "54:00.0", "weatherCondition": "", "temperature": 28.0, "humidity": 93.0, "visibility": null, "windSpeed": 8.0, "description": "MD 200 EAST AT EXIT 16A-B US 29 COLUMBIA PIKE (EB)", "street": "MD-200", "city": "Silver Spring", "state": "MD", "distance": 2.037}, {"id": "A-4055546", "lat": 30.21593, "lng": -93.36891, "severity": 4, "startTime": "2/12/2022 6:16", "weatherCondition": "Fog", "temperature": 46.0, "humidity": 100.0, "visibility": 0.25, "windSpeed": 0.0, "description": "Construction on I-10 WB near WING GULLY Road closed. Take alternate route.", "street": "I-10 W", "city": "Sulphur", "state": "LA", "distance": 11.991}, {"id": "A-3737921", "lat": 36.53432, "lng": -82.38835, "severity": 4, "startTime": "4/16/2022 9:17", "weatherCondition": "Cloudy", "temperature": 55.0, "humidity": 83.0, "visibility": 10.0, "windSpeed": 3.0, "description": "Incident on TN-126 EB near I-81 Road closed. Take alternate route.", "street": "TN-126", "city": "Blountville", "state": "TN", "distance": 0.13699999999999998}, {"id": "A-5144649", "lat": 25.87842, "lng": -80.35504, "severity": 2, "startTime": "30:30.0", "weatherCondition": "Thunder", "temperature": 79.0, "humidity": 83.0, "visibility": 10.0, "windSpeed": 12.0, "description": "Stationary traffic on FL-25 - US-27 N from NW 103rd St to NW South River Dr due to accident.", "street": "W Okeechobee Rd", "city": "Miami", "state": "FL", "distance": 0.12}, {"id": "A-554120", "lat": 33.54582, "lng": -112.13431, "severity": 1, "startTime": "7/27/2022 7:49", "weatherCondition": "Partly Cloudy", "temperature": 84.0, "humidity": 58.0, "visibility": 10.0, "windSpeed": 9.0, "description": "Crash on 35th Ave around Orangewood Ave.", "street": "W Orangewood Ave", "city": "Phoenix", "state": "AZ", "distance": 0.0}, {"id": "A-4374130", "lat": 45.64863, "lng": -120.96159, "severity": 2, "startTime": "1/10/2022 10:16", "weatherCondition": "Light Snow", "temperature": 30.0, "humidity": 82.0, "visibility": 3.0, "windSpeed": 3.0, "description": "A crash has occurred causing no to minimum delays. Use caution.", "street": "I-84 W", "city": "The Dalles", "state": "OR", "distance": 7.381}, {"id": "A-724991", "lat": 42.48581, "lng": -83.26318, "severity": 3, "startTime": "2/2/2022 17:31", "weatherCondition": "Light Snow", "temperature": 29.0, "humidity": 95.0, "visibility": 1.0, "windSpeed": 8.0, "description": "Right lane blocked and right hand shoulder blocked due to accident on I-696 Eastbound at M-10 John C Lodge Fwy Exit 17.", "street": "I-696 W", "city": "Southfield", "state": "MI", "distance": 0.0}, {"id": "A-548380", "lat": 32.67532, "lng": -97.163, "severity": 3, "startTime": "8/2/2022 12:34", "weatherCondition": "Fair", "temperature": 98.0, "humidity": 30.0, "visibility": 10.0, "windSpeed": 12.0, "description": "One lane blocked due to crash on I-20 Westbound at Park Springs Blvd.", "street": "I-20 W", "city": "Arlington", "state": "TX", "distance": 0.0}, {"id": "A-4659804", "lat": 33.97485, "lng": -83.35512, "severity": 4, "startTime": "6/8/2022 23:36", "weatherCondition": "Heavy T-Storm", "temperature": 72.0, "humidity": 93.0, "visibility": 1.0, "windSpeed": 0.0, "description": "Incident on GA-10 SB near OLD HULL RD Road closed. Take alternate route.", "street": "Athens Perimeter Hwy", "city": "Athens", "state": "GA", "distance": 0.046}, {"id": "A-587698", "lat": 39.28028, "lng": -76.6519, "severity": 1, "startTime": "6/21/2022 8:51", "weatherCondition": "", "temperature": null, "humidity": null, "visibility": null, "windSpeed": null, "description": "Crash on US-1 Wilkens Ave at Bentalou St.", "street": "Wilkens Ave", "city": "Baltimore", "state": "MD", "distance": 0.0}, {"id": "A-695250", "lat": 33.88077, "lng": -117.54932, "severity": 3, "startTime": "2/26/2022 1:13", "weatherCondition": "Fair", "temperature": 36.0, "humidity": 70.0, "visibility": 10.0, "windSpeed": 0.0, "description": "Entry ramp to I-15 Northbound at Exits 50 51 from CA-91 Eastbound lane blocked due to crash.", "street": "CA-91 E", "city": "Corona", "state": "CA", "distance": 0.4399999976158142}, {"id": "A-3961902", "lat": 34.93136, "lng": -80.6886, "severity": 4, "startTime": "8/16/2022 21:36", "weatherCondition": "Mostly Cloudy", "temperature": 71.0, "humidity": 84.0, "visibility": 10.0, "windSpeed": 5.0, "description": "The road is closed near McNeely Rd.", "street": "Waxhaw Hwy", "city": "Waxhaw", "state": "NC", "distance": 0.118}, {"id": "A-540101", "lat": 30.20836, "lng": -92.07549, "severity": 1, "startTime": "8/11/2022 6:36", "weatherCondition": "Fog", "temperature": 75.0, "humidity": 96.0, "visibility": 0.5, "windSpeed": 5.0, "description": "Crash on Ambassador Caffery Pkwy at Wilbourn Blvd.", "street": "Ambassador Caffery Pkwy", "city": "Lafayette", "state": "LA", "distance": 0.0}, {"id": "A-569617", "lat": 34.65647, "lng": -80.59711, "severity": 1, "startTime": "7/11/2022 4:55", "weatherCondition": "Cloudy", "temperature": 66.0, "humidity": 100.0, "visibility": 10.0, "windSpeed": 3.0, "description": "Crash on SC-903 Flat Creek Rd at Dobbie Ln.", "street": "Flat Creek Rd", "city": "Heath Springs", "state": "SC", "distance": 0.0}, {"id": "A-650322", "lat": 40.60825, "lng": -74.13213, "severity": 3, "startTime": "4/14/2022 15:37", "weatherCondition": "Mostly Cloudy", "temperature": 86.0, "humidity": 31.0, "visibility": null, "windSpeed": 7.0, "description": "Center lane blocked due to crash on I-278 Westbound after Exit 11 Gannon Ave.", "street": "Staten Island Expy", "city": "Staten Island", "state": "NY", "distance": 0.0}, {"id": "A-610375", "lat": 44.99663, "lng": -93.45824, "severity": 3, "startTime": "5/26/2022 7:03", "weatherCondition": "Cloudy", "temperature": 48.0, "humidity": 83.0, "visibility": 10.0, "windSpeed": 9.0, "description": "Right lane blocked due to crash on I-494 Southbound at Exit 21 CR-6.", "street": "I-494 S", "city": "Minneapolis", "state": "MN", "distance": 0.0}, {"id": "A-675866", "lat": 37.21428, "lng": -93.31216, "severity": 3, "startTime": "3/16/2022 6:47", "weatherCondition": "Fair", "temperature": 42.0, "humidity": 92.0, "visibility": 9.0, "windSpeed": 5.0, "description": "Right lane blocked due to crash on I-44-BL Eastbound at MO-13 Kansas Expy.", "street": "N Kansas Expy", "city": "Springfield", "state": "MO", "distance": 0.0}, {"id": "A-5376155", "lat": 40.95661, "lng": -78.29596, "severity": 2, "startTime": "37:00.0", "weatherCondition": "Cloudy", "temperature": 54.0, "humidity": 86.0, "visibility": 10.0, "windSpeed": 8.0, "description": "Stationary traffic on US-322 E - US-322 W from LR17122 (28th Division Hwy/US-322) to Main St (28th Division Hwy/US-322) due to accident.", "street": "Twenty-Eighth Division Hwy", "city": "West Decatur", "state": "PA", "distance": 0.935}, {"id": "A-652345", "lat": 41.70694, "lng": -72.6452, "severity": 3, "startTime": "4/12/2022 22:20", "weatherCondition": "Fair", "temperature": 63.0, "humidity": 34.0, "visibility": 10.0, "windSpeed": 5.0, "description": "Two lanes blocked due to crash on I-91 Southbound at Exits 25-26 25N 25S 26 CT-3.", "street": "I-91", "city": "Wethersfield", "state": "CT", "distance": 0.0}, {"id": "A-558081", "lat": 39.75653, "lng": -84.18361, "severity": 1, "startTime": "7/22/2022 17:09", "weatherCondition": "Fair", "temperature": 89.0, "humidity": 30.0, "visibility": 10.0, "windSpeed": 5.0, "description": "Crash on Jackson St at 6th St.", "street": "Jackson St", "city": "Dayton", "state": "OH", "distance": 0.0}, {"id": "A-654964", "lat": 40.8382, "lng": -73.88157, "severity": 3, "startTime": "4/10/2022 0:46", "weatherCondition": "Mostly Cloudy", "temperature": 49.0, "humidity": 61.0, "visibility": 10.0, "windSpeed": 9.0, "description": "Two lanes blocked due to crash on I-95 Northbound at Farms Rd.", "street": "W Farms Rd", "city": "Bronx", "state": "NY", "distance": 0.0}, {"id": "A-4303427", "lat": 34.96661, "lng": -82.40623, "severity": 2, "startTime": "22:46.0", "weatherCondition": "Fair", "temperature": 50.0, "humidity": 48.0, "visibility": 10.0, "windSpeed": 10.0, "description": "Incident on STATE PARK RD near CLEARVIEW RD Drive with caution.", "street": "State Park Rd", "city": "Travelers Rest", "state": "SC", "distance": 0.108}, {"id": "A-748238", "lat": 35.29403, "lng": -80.96116, "severity": 3, "startTime": "1/13/2022 16:54", "weatherCondition": "Mostly Cloudy", "temperature": 50.0, "humidity": 46.0, "visibility": 10.0, "windSpeed": 0.0, "description": "Left lane closed due to accident on I-485 Northbound at Exit 14 NC-27 Mt Holly Rd.", "street": "I-485", "city": "Charlotte", "state": "NC", "distance": 0.0}, {"id": "A-3902430", "lat": 33.38345, "lng": -83.90337, "severity": 4, "startTime": "6/26/2022 13:18", "weatherCondition": "Fair", "temperature": 88.0, "humidity": 40.0, "visibility": 10.0, "windSpeed": 5.0, "description": "Incident on GA-36 WB near KEYS FERRY RD Road closed. Take alternate route.", "street": "Highway 36 E", "city": "Jackson", "state": "GA", "distance": 0.038}, {"id": "A-4227287", "lat": 41.80697, "lng": -72.65867, "severity": 4, "startTime": "12/17/2022 0:18", "weatherCondition": "Light Rain", "temperature": 36.0, "humidity": 93.0, "visibility": 5.0, "windSpeed": 8.0, "description": "RT 159 CLOSED between MEADOW RD AND NORMAN AVE because of Crash (1 Vehicle). Reported Saturday December 17 at 12:21 am.", "street": "Windsor Ave", "city": "Windsor", "state": "CT", "distance": 0.023}, {"id": "A-5365099", "lat": 38.5915, "lng": -76.19035, "severity": 4, "startTime": "48:40.0", "weatherCondition": "Fair", "temperature": 66.0, "humidity": 52.0, "visibility": 10.0, "windSpeed": 7.0, "description": "Incident on MD-343 WB near MORRIS NECK RD Road closed. Take alternate route.", "street": "Morris Neck Rd", "city": "Cambridge", "state": "MD", "distance": 0.603}, {"id": "A-4820496", "lat": 38.40914, "lng": -78.85558, "severity": 4, "startTime": "3/15/2022 19:05", "weatherCondition": "Mostly Cloudy", "temperature": 63.0, "humidity": 30.0, "visibility": 10.0, "windSpeed": 9.0, "description": "Incident on VA-710 SB near AUTUMN LN Road closed. Take alternate route.", "street": "Reservoir St", "city": "Harrisonburg", "state": "VA", "distance": 0.01}, {"id": "A-4385159", "lat": 37.7411, "lng": -77.04152, "severity": 4, "startTime": "4/18/2022 19:07", "weatherCondition": "Rain", "temperature": 46.0, "humidity": 100.0, "visibility": 5.0, "windSpeed": 7.0, "description": "South Canterbury Road at North Minter Lane in the County of King &amp; Queen motorists can expect delays due to a vehicle crash. All north lanes are closed. All south lanes are closed.", "street": "Canterbury Rd S", "city": "Walkerton", "state": "VA", "distance": 0.16}, {"id": "A-3987235", "lat": 43.04513, "lng": -71.47305, "severity": 4, "startTime": "1/5/2022 10:07", "weatherCondition": "Wintry Mix", "temperature": 28.0, "humidity": 92.0, "visibility": 2.0, "windSpeed": 0.0, "description": "I-293 S - Everett Tpke S is closed from I-93 (Hooksett) (I-293) to NH-3A/Exit 7 (I-293) due to accident.", "street": "Everett Tpke S", "city": "Hooksett", "state": "NH", "distance": 2.269}, {"id": "A-5142640", "lat": 35.71834, "lng": -81.74886, "severity": 4, "startTime": "23:00.0", "weatherCondition": "Fair", "temperature": 15.0, "humidity": 42.0, "visibility": 10.0, "windSpeed": 10.0, "description": "Incident on I-40 WB near EXIT 100 Road closed. Take alternate route.", "street": "I-40", "city": "Morganton", "state": "NC", "distance": 2.002}, {"id": "A-600678", "lat": 26.091, "lng": -80.21621, "severity": 1, "startTime": "6/7/2022 17:59", "weatherCondition": "Mostly Cloudy", "temperature": 78.0, "humidity": 87.0, "visibility": 10.0, "windSpeed": 8.0, "description": "Crash on FL-84 Westbound at FL-91.", "street": "SR-84", "city": "Fort Lauderdale", "state": "FL", "distance": 0.0}, {"id": "A-4341980", "lat": 40.94414, "lng": -77.72982, "severity": 4, "startTime": "2/18/2022 2:20", "weatherCondition": "Light Rain", "temperature": 57.0, "humidity": 92.0, "visibility": 10.0, "windSpeed": 13.0, "description": "Incident on I-80 EB near US-220 Road closed. Take alternate route.", "street": "I-80 E", "city": "Bellefonte", "state": "PA", "distance": 2.641}, {"id": "A-631343", "lat": 35.87299, "lng": -78.67955, "severity": 1, "startTime": "5/2/2022 17:43", "weatherCondition": "Mostly Cloudy", "temperature": 82.0, "humidity": 51.0, "visibility": 10.0, "windSpeed": 7.0, "description": "Crash on Lynn Rd both ways at NC-50 Creedmoor Rd.", "street": "Lynn Rd", "city": "Raleigh", "state": "NC", "distance": 0.0}, {"id": "A-554684", "lat": 32.79643, "lng": -96.7765, "severity": 1, "startTime": "7/27/2022 5:05", "weatherCondition": "Fair", "temperature": 85.0, "humidity": 61.0, "visibility": 10.0, "windSpeed": 9.0, "description": "Crash on Swiss Ave at Peak St.", "street": "Swiss Ave", "city": "Dallas", "state": "TX", "distance": 0.0}, {"id": "A-703768", "lat": 32.77947, "lng": -117.0675, "severity": 3, "startTime": "2/19/2022 11:59", "weatherCondition": "Fair", "temperature": 75.0, "humidity": 18.0, "visibility": 10.0, "windSpeed": 9.0, "description": "#4 & #5 lane blocked due to crash on I-8 Westbound at Exit 10 College Ave.", "street": "I-8 W", "city": "San Diego", "state": "CA", "distance": 0.0}, {"id": "A-4854705", "lat": 45.5623, "lng": -123.10576, "severity": 4, "startTime": "11/3/2022 11:08", "weatherCondition": "Fog", "temperature": 41.0, "humidity": 96.0, "visibility": 2.0, "windSpeed": 0.0, "description": "A crash has occurred. Use an alternate route.", "street": "NW Osterman Rd", "city": "Forest Grove", "state": "OR", "distance": 1.214}, {"id": "A-4283112", "lat": 34.7396, "lng": -112.14308, "severity": 2, "startTime": "00:00.0", "weatherCondition": "Fair", "temperature": 44.0, "humidity": 55.0, "visibility": 10.0, "windSpeed": 6.0, "description": "Incident on AZ-89-ALT NB near FS ROAD 503A Drive with caution.", "street": "AZ-89-ALT", "city": "Jerome", "state": "AZ", "distance": 0.278}, {"id": "A-579567", "lat": 38.61802, "lng": -121.40147, "severity": 1, "startTime": "6/29/2022 14:32", "weatherCondition": "Fair", "temperature": 90.0, "humidity": 22.0, "visibility": 10.0, "windSpeed": 5.0, "description": "Crash on Fulton Ave at Marconi Ave.", "street": "Fulton Ave", "city": "Sacramento", "state": "CA", "distance": 0.0}, {"id": "A-671868", "lat": 33.79797, "lng": -84.39293, "severity": 3, "startTime": "3/18/2022 18:04", "weatherCondition": "Cloudy", "temperature": 59.0, "humidity": 90.0, "visibility": 10.0, "windSpeed": 8.0, "description": "One lane blocked due to crash on I-85 Southbound before Exits 84 85 I-75 Exits 250 251 251A.", "street": "GA-13 S", "city": "Atlanta", "state": "GA", "distance": 0.0}, {"id": "A-530732", "lat": 30.35425, "lng": -91.11026, "severity": 1, "startTime": "8/22/2022 7:56", "weatherCondition": "Mostly Cloudy", "temperature": 77.0, "humidity": 96.0, "visibility": 9.0, "windSpeed": 5.0, "description": "Crash on LA-1248 Bluebonnet Blvd at LA-42 Burbank Dr.", "street": "Bluebonnet Blvd", "city": "Baton Rouge", "state": "LA", "distance": 0.0}, {"id": "A-3878375", "lat": 35.03118, "lng": -80.54407, "severity": 2, "startTime": "4/29/2022 11:05", "weatherCondition": "Cloudy", "temperature": 67.0, "humidity": 52.0, "visibility": 10.0, "windSpeed": 8.0, "description": "Incident on US-74 WB near 601 CONCORD HWY Left lane blocked.", "street": "Monroe Expy", "city": "Monroe", "state": "NC", "distance": 3.149}, {"id": "A-3861310", "lat": 29.82302, "lng": -94.88358, "severity": 4, "startTime": "2/20/2022 6:38", "weatherCondition": "Cloudy", "temperature": 54.0, "humidity": 82.0, "visibility": 10.0, "windSpeed": 0.0, "description": "I-10 W is closed from TX-99/Grand Pkwy/Exit 799 (I-10) to TX-146/Exit 798 (I-10) due to accident.", "street": "", "city": "Baytown", "state": "TX", "distance": 1.352}, {"id": "A-585288", "lat": 34.0303, "lng": -117.68966, "severity": 1, "startTime": "6/23/2022 4:00", "weatherCondition": "Fair", "temperature": 70.0, "humidity": 49.0, "visibility": 10.0, "windSpeed": 0.0, "description": "Crash on Central Ave near CA-60 Exit 33.", "street": "CA-60 W", "city": "Chino", "state": "CA", "distance": 0.0}, {"id": "A-4483074", "lat": 39.10713, "lng": -94.56899, "severity": 4, "startTime": "3/12/2022 4:28", "weatherCondition": "Fair", "temperature": 12.0, "humidity": 56.0, "visibility": 10.0, "windSpeed": 3.0, "description": "Incident on I-35 NB near FRONT ST Expect delays.", "street": "I-35", "city": "Kansas City", "state": "MO", "distance": 0.502}, {"id": "A-4375866", "lat": 33.58838, "lng": -84.38343, "severity": 2, "startTime": "6/18/2022 4:15", "weatherCondition": "Mostly Cloudy", "temperature": 74.0, "humidity": 82.0, "visibility": 10.0, "windSpeed": 9.0, "description": "Incident on I-75 NB near TARA BLVD Road closed. Take alternate route.", "street": "GA-401 N", "city": "Forest Park", "state": "GA", "distance": 0.785}, {"id": "A-4807321", "lat": 34.38329, "lng": -92.84835, "severity": 4, "startTime": "2/18/2022 9:03", "weatherCondition": "Fair", "temperature": 31.0, "humidity": 57.0, "visibility": 10.0, "windSpeed": 0.0, "description": "Incident on I-30 WB near I-30 Road closed. Take alternate route.", "street": "I-30", "city": "Malvern", "state": "AR", "distance": 3.129}, {"id": "A-4249419", "lat": 46.16936, "lng": -123.70549, "severity": 4, "startTime": "11/4/2022 11:30", "weatherCondition": "Heavy Rain", "temperature": 56.0, "humidity": 97.0, "visibility": 1.0, "windSpeed": 18.0, "description": "A crash has occurred use caution.", "street": "Highway 30", "city": "Astoria", "state": "OR", "distance": 0.337}, {"id": "A-535741", "lat": 34.69021, "lng": -82.35646, "severity": 1, "startTime": "8/16/2022 18:59", "weatherCondition": "Mostly Cloudy", "temperature": 73.0, "humidity": 78.0, "visibility": 10.0, "windSpeed": 10.0, "description": "Crash on Georgia Rd at Reedy Fork Rd.", "street": "W Georgia Rd", "city": "Piedmont", "state": "SC", "distance": 0.0}, {"id": "A-3838135", "lat": 33.60499, "lng": -117.69139, "severity": 2, "startTime": "5/11/2022 17:08", "weatherCondition": "Fair", "temperature": 67.0, "humidity": 32.0, "visibility": 10.0, "windSpeed": 6.0, "description": "Stationary traffic on San Diego Fwy S - I-5 S from El Toro Rd (I-5) to Crown Valley Pkwy (I-5) due to accident.", "street": "I-5 S", "city": "Mission Viejo", "state": "CA", "distance": 3.087}, {"id": "A-652315", "lat": 37.23315, "lng": -80.23786, "severity": 3, "startTime": "4/12/2022 22:16", "weatherCondition": "Cloudy", "temperature": 65.0, "humidity": 72.0, "visibility": 10.0, "windSpeed": 0.0, "description": "Left lane closed due to crash on I-81 Southbound before Exit 128 Northfork Rd.", "street": "I-81", "city": "Elliston", "state": "VA", "distance": 0.0}, {"id": "A-670593", "lat": 45.54155, "lng": -122.4773, "severity": 3, "startTime": "3/20/2022 20:49", "weatherCondition": "Cloudy", "temperature": 46.0, "humidity": 71.0, "visibility": 10.0, "windSpeed": 3.0, "description": "Entry ramp to I-84 Westbound from Ne 181st Ave Northbound closed due to crash.", "street": "NE 181st Ave", "city": "Portland", "state": "OR", "distance": 0.550000012}, {"id": "A-535581", "lat": 34.04712, "lng": -118.44607, "severity": 1, "startTime": "8/16/2022 0:36", "weatherCondition": "Fair", "temperature": 66.0, "humidity": 75.0, "visibility": 10.0, "windSpeed": 0.0, "description": "Crash on CA-2 Santa Monica Blvd both ways at Cotner Ave.", "street": "Santa Monica Blvd", "city": "Los Angeles", "state": "CA", "distance": 0.0}, {"id": "A-546310", "lat": 32.89688, "lng": -96.89793, "severity": 3, "startTime": "8/4/2022 8:26", "weatherCondition": "Fair", "temperature": 83.0, "humidity": 69.0, "visibility": 10.0, "windSpeed": 8.0, "description": "Right lane blocked due to crash on I-35E Northbound at Exit 439 Stemmons Fwy.", "street": "N Stemmons Fwy", "city": "Dallas", "state": "TX", "distance": 0.0}, {"id": "A-4879228", "lat": 40.90112, "lng": -74.15076, "severity": 2, "startTime": "01:13.0", "weatherCondition": "Cloudy", "temperature": 43.0, "humidity": 43.0, "visibility": 10.0, "windSpeed": 14.0, "description": "Incident on I-80 EB near RT-20 Right lane blocked. Expect delays.", "street": "I-80", "city": "Paterson", "state": "NJ", "distance": 0.048}, {"id": "A-590313", "lat": 39.92876, "lng": -86.26523, "severity": 3, "startTime": "6/17/2022 13:20", "weatherCondition": "Fair", "temperature": 82.0, "humidity": 43.0, "visibility": 10.0, "windSpeed": 12.0, "description": "Right lane blocked due to crash on I-465 Westbound between Exit 27 US-421 Michigan Rd and Exit 25 I-865.", "street": "I-865 E", "city": "Zionsville", "state": "IN", "distance": 3.2000000476837163}, {"id": "A-534477", "lat": 39.39579, "lng": -76.68791, "severity": 3, "startTime": "8/17/2022 17:54", "weatherCondition": "", "temperature": 71.0, "humidity": 55.0, "visibility": null, "windSpeed": null, "description": "Two lanes blocked due to crash on I-695 clockwise at Exit 22 Greenspring Ave.", "street": "I-695 E", "city": "Pikesville", "state": "MD", "distance": 0.0}, {"id": "A-543966", "lat": 32.81013, "lng": -96.62753, "severity": 3, "startTime": "8/7/2022 15:40", "weatherCondition": "Partly Cloudy", "temperature": 99.0, "humidity": 27.0, "visibility": 10.0, "windSpeed": 14.0, "description": "Two lanes blocked due to crash on I-635 Northbound at Exit 7 Town East Blvd.", "street": "I-635", "city": "Mesquite", "state": "TX", "distance": 0.0}, {"id": "A-4207390", "lat": 27.29808, "lng": -82.4975, "severity": 2, "startTime": "15:55.0", "weatherCondition": "Fair / Windy", "temperature": 83.0, "humidity": 63.0, "visibility": 10.0, "windSpeed": 22.0, "description": "Slow traffic from Helene St to Miguel Ln due to accident.", "street": "Beneva Rd", "city": "Sarasota", "state": "FL", "distance": 0.071}, {"id": "A-3751117", "lat": 30.00228, "lng": -90.06699, "severity": 2, "startTime": "4/24/2022 10:18", "weatherCondition": "Mostly Cloudy", "temperature": 80.0, "humidity": 62.0, "visibility": 10.0, "windSpeed": 14.0, "description": "Incident on WALLACE DR near STEPHEN GIRARD ST Drive with caution.", "street": "Stephen Girard St", "city": "New Orleans", "state": "LA", "distance": 0.039}, {"id": "A-3780956", "lat": 28.99326, "lng": -80.94475, "severity": 4, "startTime": "9/22/2022 16:04", "weatherCondition": "Fair", "temperature": 84.0, "humidity": 70.0, "visibility": 10.0, "windSpeed": 12.0, "description": "Old Mission Rd is closed from Josephine St to Taylor Rd due to accident.", "street": "Old Mission Rd", "city": "New Smyrna Beach", "state": "FL", "distance": 0.339}, {"id": "A-4570463", "lat": 34.13996, "lng": -117.30262, "severity": 2, "startTime": "2/3/2022 8:49", "weatherCondition": "Fair", "temperature": 50.0, "humidity": 22.0, "visibility": 10.0, "windSpeed": 0.0, "description": "Slow traffic on CA-259 W from CA-206/CA-210/W 30th St/E St (CA-259) to W Highland Ave (CA-259) due to accident.", "street": "CA-259 W", "city": "San Bernardino", "state": "CA", "distance": 0.449}, {"id": "A-666463", "lat": 46.04126, "lng": -122.85906, "severity": 3, "startTime": "3/23/2022 16:15", "weatherCondition": "Light Rain", "temperature": 54.0, "humidity": 94.0, "visibility": 4.0, "windSpeed": 0.0, "description": "Left lane blocked due to crash on I-5 Southbound between Exit 36 WA-432 and Exit 32 Kalama River Rd.", "street": "Kalama River Rd", "city": "Kalama", "state": "WA", "distance": 7.510000228881836}, {"id": "A-535828", "lat": 34.53157, "lng": -82.69685, "severity": 1, "startTime": "8/16/2022 16:30", "weatherCondition": "Cloudy", "temperature": 76.0, "humidity": 76.0, "visibility": 10.0, "windSpeed": 14.0, "description": "Crash on Whitehall Rd at SC-28-BYP Pearman Dairy Rd.", "street": "Whitehall Rd", "city": "Anderson", "state": "SC", "distance": 0.0}, {"id": "A-4929432", "lat": 39.64571, "lng": -85.91371, "severity": 4, "startTime": "10:00.0", "weatherCondition": "Fair", "temperature": 87.0, "humidity": 44.0, "visibility": 10.0, "windSpeed": 6.0, "description": "Incident on I-74 WB near IN-9 Road closed. Take alternate route.", "street": "I-74 W", "city": "Fairland", "state": "IN", "distance": 2.1830000000000003}, {"id": "A-557919", "lat": 34.81972, "lng": -82.26937, "severity": 1, "startTime": "7/22/2022 17:47", "weatherCondition": "Mostly Cloudy", "temperature": 94.0, "humidity": 46.0, "visibility": 10.0, "windSpeed": 9.0, "description": "Crash on SC-146 Woodruff Rd at Butler Rd.", "street": "E Butler Rd", "city": "Greenville", "state": "SC", "distance": 0.0}, {"id": "A-5003638", "lat": 40.66589, "lng": -76.38976, "severity": 4, "startTime": "11/15/2022 19:44", "weatherCondition": "Light Rain", "temperature": 34.0, "humidity": 87.0, "visibility": 6.0, "windSpeed": 0.0, "description": "Crash on I-81 southbound between Exit 112: PA 25 - HEGINS and Exit 107: US 209 - TREMONT/TOWER CITY. All lanes closed.", "street": "I-81 S", "city": "Tremont", "state": "PA", "distance": 4.0760000000000005}, {"id": "A-557462", "lat": 35.01508, "lng": -85.54022, "severity": 3, "startTime": "7/23/2022 11:13", "weatherCondition": "Fair", "temperature": 86.0, "humidity": 65.0, "visibility": 10.0, "windSpeed": 5.0, "description": "Left lane blocked and left hand shoulder blocked due to multi-vehicle crash on I-24 Eastbound after Exit 161 TN-156.", "street": "I-24", "city": "Guild", "state": "TN", "distance": 0.0}, {"id": "A-691688", "lat": 40.61217, "lng": -74.15344, "severity": 3, "startTime": "3/2/2022 10:02", "weatherCondition": "Fair", "temperature": 45.0, "humidity": 45.0, "visibility": null, "windSpeed": 10.0, "description": "Two lanes blocked due to crash on I-278 Eastbound at NY-440 Dr Martin Luther King Jr Expy.", "street": "I-278 W", "city": "Staten Island", "state": "NY", "distance": 0.0}, {"id": "A-516818", "lat": 26.61513, "lng": -80.0387, "severity": 1, "startTime": "9/5/2022 8:24", "weatherCondition": "Partly Cloudy", "temperature": 86.0, "humidity": 72.0, "visibility": 10.0, "windSpeed": 7.0, "description": "Crash on FL-A1A Ocean Blvd at FL-802 Lake Worth Rd.", "street": "", "city": "Lake Worth Beach", "state": "FL", "distance": 0.0}, {"id": "A-562602", "lat": 29.99161, "lng": -81.60705, "severity": 1, "startTime": "7/19/2022 6:38", "weatherCondition": "Mostly Cloudy", "temperature": 77.0, "humidity": 100.0, "visibility": 10.0, "windSpeed": 5.0, "description": "Crash on FL-16 at Steamboat Rd.", "street": "State Road 16", "city": "Saint Augustine", "state": "FL", "distance": 0.0}, {"id": "A-632930", "lat": 37.15234, "lng": -76.50763, "severity": 1, "startTime": "4/29/2022 7:31", "weatherCondition": "Fair", "temperature": 48.0, "humidity": 71.0, "visibility": 10.0, "windSpeed": 3.0, "description": "Crash on VA-173 Denbigh Blvd at Woodside Ln.", "street": "Woodside Ln", "city": "Newport News", "state": "VA", "distance": 0.0}, {"id": "A-624940", "lat": 33.96723, "lng": -118.08347, "severity": 3, "startTime": "5/12/2022 13:33", "weatherCondition": "Fair", "temperature": 83.0, "humidity": 8.0, "visibility": 10.0, "windSpeed": 7.0, "description": "#1 lane blocked due to crash on I-605 Southbound at Exit 14/ Slauson Ave.", "street": "Slauson Ave", "city": "Whittier", "state": "CA", "distance": 0.0}, {"id": "A-4072601", "lat": 41.05649, "lng": -75.80093, "severity": 2, "startTime": "11:00.0", "weatherCondition": "Fair", "temperature": 78.0, "humidity": 68.0, "visibility": 10.0, "windSpeed": 5.0, "description": "Crash on I-80 westbound between Exit 273: PA 940/PA 437 - WHITE HAVEN/FREELAND and Exit 262: PA 309 - MOUNTAIN TOP/HAZLETON. There is a lane restriction.", "street": "I-80 W", "city": "White Haven", "state": "PA", "distance": 1.358}, {"id": "A-712234", "lat": 42.44815, "lng": -93.52106, "severity": 3, "startTime": "2/13/2022 8:15", "weatherCondition": "Partly Cloudy", "temperature": 4.0, "humidity": 82.0, "visibility": 10.0, "windSpeed": 13.0, "description": "Crash on US-20 Eastbound from I-35 to Xircus Ave.", "street": "US-20 W", "city": "Williams", "state": "IA", "distance": 3.9500000476837163}, {"id": "A-642583", "lat": 38.06918, "lng": -122.22662, "severity": 3, "startTime": "4/21/2022 13:36", "weatherCondition": "Mostly Cloudy", "temperature": 62.0, "humidity": 60.0, "visibility": 10.0, "windSpeed": 18.0, "description": "Lane blocked due to crash on I-80 Eastbound at Carquinez Bridge Toll Plaza.", "street": "Carquinez Brg E", "city": "Vallejo", "state": "CA", "distance": 0.0}, {"id": "A-532537", "lat": 41.56532, "lng": -87.74367, "severity": 3, "startTime": "8/19/2022 8:41", "weatherCondition": "Fair", "temperature": 71.0, "humidity": 74.0, "visibility": 10.0, "windSpeed": 7.0, "description": "Lane blocked due to crash on I-57 Northbound at Exit 345 I-80.", "street": "151B", "city": "Country Club Hills", "state": "IL", "distance": 0.0}, {"id": "A-673101", "lat": 40.04526, "lng": -75.00188, "severity": 3, "startTime": "3/17/2022 21:22", "weatherCondition": "Cloudy", "temperature": 55.0, "humidity": 93.0, "visibility": 6.0, "windSpeed": 5.0, "description": "Lane blocked due to crash on I-95 Northbound between Exit 30 State Rd and Exit 32 Linden Ave.", "street": "I-95", "city": "Philadelphia", "state": "PA", "distance": 3.75}, {"id": "A-4413197", "lat": 41.07159, "lng": -78.48847, "severity": 2, "startTime": "12/15/2022 4:21", "weatherCondition": "Light Freezing Rain", "temperature": 30.0, "humidity": 82.0, "visibility": 9.0, "windSpeed": 6.0, "description": "Multi vehicle crash on I-80 eastbound between 5.5 miles east of Exit 111: PA 153 - CLEARFIELD and 5.6 miles west of Exit 120: PA 879 - CLEARFIELD/SHAWVILLE. There is a lane restriction.", "street": "I-80 E", "city": "Clearfield", "state": "PA", "distance": 1.038}, {"id": "A-543734", "lat": 34.03724, "lng": -118.30956, "severity": 3, "startTime": "8/8/2022 2:23", "weatherCondition": "Fair", "temperature": 68.0, "humidity": 76.0, "visibility": 10.0, "windSpeed": 0.0, "description": "Two lanes blocked due to crash on I-10 Westbound at Exits 10 11 12 CA-110 Exits 22 22A 22B.", "street": "I-10", "city": "Los Angeles", "state": "CA", "distance": 0.0}, {"id": "A-734704", "lat": 37.86108, "lng": -104.82875, "severity": 3, "startTime": "1/25/2022 17:42", "weatherCondition": "Heavy Snow", "temperature": 9.0, "humidity": 85.0, "visibility": 0.25, "windSpeed": 16.0, "description": "Lane blocked due to accident on I-25 Northbound at Exit 67 County Road 670.", "street": "I-25 S", "city": "Rye", "state": "CO", "distance": 0.0}, {"id": "A-593184", "lat": 29.30768, "lng": -98.53518, "severity": 1, "startTime": "6/15/2022 6:43", "weatherCondition": "Mostly Cloudy", "temperature": 79.0, "humidity": 78.0, "visibility": 8.0, "windSpeed": 9.0, "description": "Crash on Zarzamora St between I-410-Loop and Hunters Pond.", "street": "S Zarzamora St", "city": "San Antonio", "state": "TX", "distance": 2.869999885559082}, {"id": "A-512261", "lat": 41.51843, "lng": -87.99307, "severity": 3, "startTime": "9/8/2022 4:37", "weatherCondition": "Partly Cloudy", "temperature": 61.0, "humidity": 94.0, "visibility": 10.0, "windSpeed": 0.0, "description": "Lane blocked due to crash on I-80 Westbound between Exit 140 I-355 and Exit 137 US-30 Lincoln Hwy.", "street": "I-80 E", "city": "New Lenox", "state": "IL", "distance": 3.7100000381469727}, {"id": "A-4081147", "lat": 27.66146, "lng": -82.43547, "severity": 4, "startTime": "8/25/2022 21:51", "weatherCondition": "Cloudy", "temperature": 75.0, "humidity": 90.0, "visibility": null, "windSpeed": 6.0, "description": "I-75 S is closed from FL-674/Exit 46 (I-75) to 97th St/Moccasin Wallow Rd/Exit 229 (I-75) due to accident.", "street": "I-75", "city": "Ruskin", "state": "FL", "distance": 1.444}, {"id": "A-5036234", "lat": 42.30022, "lng": -88.0323, "severity": 4, "startTime": "8/1/2022 10:09", "weatherCondition": "Mostly Cloudy", "temperature": 79.0, "humidity": 69.0, "visibility": 10.0, "windSpeed": 14.0, "description": "Incident on IL-83 SB near WINCHESTER RD Road closed. Take alternate route.", "street": "W Winchester Rd", "city": "Mundelein", "state": "IL", "distance": 0.028}, {"id": "A-515914", "lat": 30.45608, "lng": -97.66569, "severity": 1, "startTime": "9/6/2022 6:57", "weatherCondition": "Fair", "temperature": 70.0, "humidity": 100.0, "visibility": 9.0, "windSpeed": 0.0, "description": "Crash on Grand Avenue Pkwy at I-35.", "street": "Grand Avenue Pkwy", "city": "Pflugerville", "state": "TX", "distance": 0.0}, {"id": "A-555599", "lat": 40.84696, "lng": -73.92566, "severity": 3, "startTime": "7/26/2022 8:09", "weatherCondition": "Mostly Cloudy", "temperature": 73.0, "humidity": 53.0, "visibility": 10.0, "windSpeed": 6.0, "description": "Queueing traffic and left lane blocked due to crash on I-87 Southbound at Exit 7 I-95.", "street": "Major Deegan Expy", "city": "Bronx", "state": "NY", "distance": 0.0}, {"id": "A-572751", "lat": 30.48627, "lng": -97.80507, "severity": 1, "startTime": "7/7/2022 8:14", "weatherCondition": "Partly Cloudy", "temperature": 79.0, "humidity": 81.0, "visibility": 10.0, "windSpeed": 9.0, "description": "Crash on Avery Ranch Blvd at TX-183A.", "street": "TX-183A-TOLL", "city": "Cedar Park", "state": "TX", "distance": 0.0}, {"id": "A-635501", "lat": 40.26726, "lng": -78.47129, "severity": 1, "startTime": "4/27/2022 5:14", "weatherCondition": "Mostly Cloudy", "temperature": 40.0, "humidity": 51.0, "visibility": 10.0, "windSpeed": 9.0, "description": "Lane blocked due to crash on Quarry Rd both ways between Sheetz Way and Cottontown Rd.", "street": "Cottontown Rd", "city": "Claysburg", "state": "PA", "distance": 0.0}, {"id": "A-4889633", "lat": 38.75118, "lng": -90.33869, "severity": 2, "startTime": "12/28/2022 9:26", "weatherCondition": "Mostly Cloudy", "temperature": 42.0, "humidity": 55.0, "visibility": 10.0, "windSpeed": 17.0, "description": "Stationary traffic on I-170 S from Hanley Rd/Exit 9 (I-170) to Scudder Rd/Hanley Rd/Exit 8 (I-170) due to accident.", "street": "I-170 S", "city": "Saint Louis", "state": "MO", "distance": 0.6659999999999999}, {"id": "A-663942", "lat": 30.29293, "lng": -81.63232, "severity": 3, "startTime": "4/1/2022 16:25", "weatherCondition": "Mostly Cloudy", "temperature": 79.0, "humidity": 47.0, "visibility": 10.0, "windSpeed": 6.0, "description": "Left lane blocked due to crash on I-95 Southbound at Exit 347 Emerson St.", "street": "I-95", "city": "Jacksonville", "state": "FL", "distance": 0.0}, {"id": "A-637464", "lat": 33.82194, "lng": -81.17373, "severity": 1, "startTime": "4/26/2022 7:17", "weatherCondition": "Fair", "temperature": 63.0, "humidity": 90.0, "visibility": 10.0, "windSpeed": 3.0, "description": "Crash on Fish Hatchery Rd at Mimosa Dr.", "street": "Fish Hatchery Rd", "city": "Gaston", "state": "SC", "distance": 0.0}, {"id": "A-634412", "lat": 38.0346, "lng": -122.26747, "severity": 1, "startTime": "4/28/2022 14:51", "weatherCondition": "Fair", "temperature": 67.0, "humidity": 36.0, "visibility": 10.0, "windSpeed": 14.0, "description": "Crash on 3rd St at Parker Ave.", "street": "Parker Ave", "city": "Rodeo", "state": "CA", "distance": 0.0}, {"id": "A-4295716", "lat": 39.86958, "lng": -75.32726, "severity": 2, "startTime": "12/23/2022 8:33", "weatherCondition": "Cloudy", "temperature": 47.0, "humidity": 83.0, "visibility": 10.0, "windSpeed": 18.0, "description": "Stationary traffic on Vietnam Veterans Memorial Hwy - I-95 N from I-476/Exit 7 (I-95) to PA-420/Exit 9B (I-95) due to accident.", "street": "I-95 N", "city": "Ridley Park", "state": "PA", "distance": 0.975}, {"id": "A-4402107", "lat": 43.16156, "lng": -77.61048, "severity": 2, "startTime": "00:14.0", "weatherCondition": "Partly Cloudy", "temperature": 76.0, "humidity": 60.0, "visibility": 10.0, "windSpeed": 7.0, "description": "NYSDOT - Region 4: Crash on Rochester Inner Loop westbound Saint Paul Street (Rochester) to State Street (Rochester) 1 Right lane of 2 lanes closed", "street": "Inner Loop", "city": "Rochester", "state": "NY", "distance": 0.333}, {"id": "A-4431603", "lat": 40.41357, "lng": -80.00983, "severity": 4, "startTime": "11/3/2022 23:00", "weatherCondition": "Fair", "temperature": 58.0, "humidity": 72.0, "visibility": 9.0, "windSpeed": 6.0, "description": "Incident on W LIBERTY AVE NB near PA-51 Road closed. Take alternate route.", "street": "W Liberty Ave", "city": "Pittsburgh", "state": "PA", "distance": 0.042}, {"id": "A-5268637", "lat": 40.72877, "lng": -74.10459, "severity": 4, "startTime": "11/20/2022 19:08", "weatherCondition": "Fair", "temperature": 32.0, "humidity": 32.0, "visibility": 10.0, "windSpeed": 10.0, "description": "US-1 Trk N - US-9 Trk N is closed from I-95/Raymond Blvd (US-1 Trk/US-9 Trk/Lincoln Hwy) to NJ-440 (US-1 Trk/US-9 Trk/Lincoln Hwy) due to bridge closure.", "street": "Lincoln Hwy", "city": "Kearny", "state": "NJ", "distance": 0.6920000000000001}, {"id": "A-730348", "lat": 38.77521, "lng": -90.3357, "severity": 3, "startTime": "1/28/2022 19:06", "weatherCondition": "Fair", "temperature": 20.0, "humidity": 60.0, "visibility": 10.0, "windSpeed": 8.0, "description": "Two lanes blocked due to accident on I-270 Eastbound at Exit 26B Graham Rd.", "street": "I-270 E", "city": "Hazelwood", "state": "MO", "distance": 0.0}, {"id": "A-4389054", "lat": 27.81224, "lng": -82.66464, "severity": 2, "startTime": "56:10.0", "weatherCondition": "Heavy Rain", "temperature": 71.0, "humidity": 100.0, "visibility": 3.0, "windSpeed": 16.0, "description": "Incident on EXIT 25 near EXIT 25 Drive with caution.", "street": "I-275 S", "city": "Saint Petersburg", "state": "FL", "distance": 0.373}, {"id": "A-746697", "lat": 40.84478, "lng": -73.92551, "severity": 3, "startTime": "1/14/2022 21:54", "weatherCondition": "Partly Cloudy", "temperature": 27.0, "humidity": 61.0, "visibility": 10.0, "windSpeed": 15.0, "description": "Two lanes blocked due to accident on I-95 Cross Bronx Expy Southbound at Major Deegan Expressway.", "street": "Alexander Hamilton Bridge", "city": "Bronx", "state": "NY", "distance": 0.0}, {"id": "A-4109953", "lat": 40.04906, "lng": -76.76694, "severity": 2, "startTime": "1/11/2022 9:13", "weatherCondition": "Fair", "temperature": 18.0, "humidity": 50.0, "visibility": 10.0, "windSpeed": 9.0, "description": "Crash on PA 921 both directions at LEWISBERRY RD. There is a traffic disruption.", "street": "N Susquehanna Trl", "city": "York", "state": "PA", "distance": 1.074}, {"id": "A-4286647", "lat": 31.3824, "lng": -82.23141, "severity": 4, "startTime": "23:00.0", "weatherCondition": "Fair", "temperature": 59.0, "humidity": 39.0, "visibility": 10.0, "windSpeed": 6.0, "description": "Incident on GA-15 NB near COUNTY FARM RD Road closed. Take alternate route.", "street": "GA-121", "city": "Blackshear", "state": "GA", "distance": 0.5379999999999999}, {"id": "A-5036287", "lat": 40.83246, "lng": -74.43857, "severity": 2, "startTime": "10/4/2022 5:31", "weatherCondition": "Light Rain", "temperature": 45.0, "humidity": 93.0, "visibility": 7.0, "windSpeed": 9.0, "description": "NJ DOT - STMC: Crash on I-287 southbound South of Exit 39 - NJ 10 (Hanover Twp) 1 Right lane of 4 lanes closed", "street": "I-287 S", "city": "Cedar Knolls", "state": "NJ", "distance": 0.339}, {"id": "A-4704625", "lat": 39.21009, "lng": -76.64909, "severity": 4, "startTime": "10:00.0", "weatherCondition": "Cloudy", "temperature": 33.0, "humidity": 56.0, "visibility": 10.0, "windSpeed": 0.0, "description": "I-695 OUTER LOOP AT EXIT 5 MD 648 BALTO ANNAPOLIS BLVD (SB)", "street": "I-695", "city": "Linthicum Heights", "state": "MD", "distance": 0.304}, {"id": "A-587021", "lat": 42.85203, "lng": -71.21669, "severity": 1, "startTime": "6/21/2022 17:07", "weatherCondition": "Partly Cloudy", "temperature": 79.0, "humidity": 39.0, "visibility": 10.0, "windSpeed": 13.0, "description": "Crash on NH-111 both ways at Island Pond Rd.", "street": "Route 111", "city": "Derry", "state": "NH", "distance": 0.0}, {"id": "A-4659033", "lat": 33.94011, "lng": -80.79943, "severity": 2, "startTime": "11/24/2022 8:40", "weatherCondition": "Cloudy", "temperature": 52.0, "humidity": 44.0, "visibility": 10.0, "windSpeed": 5.0, "description": "Incident on GARNERS FERRY RD near SOUTH CAROLINA RD Drive with caution.", "street": "Garners Ferry Rd", "city": "Eastover", "state": "SC", "distance": 0.088}, {"id": "A-4225262", "lat": 37.1265, "lng": -79.02041, "severity": 4, "startTime": "7/21/2022 10:57", "weatherCondition": "Fair", "temperature": 84.0, "humidity": 65.0, "visibility": 10.0, "windSpeed": 3.0, "description": "On US-501 in the County of Campbell in the vicinity of Scott Ln; Rt. 910E/W (Campbell County) motorists can expect delays due to a vehicle crash. All north lanes are closed. All south lanes are closed", "street": "Brookneal Hwy", "city": "Gladys", "state": "VA", "distance": 0.375}, {"id": "A-568626", "lat": 30.18173, "lng": -81.62942, "severity": 3, "startTime": "7/12/2022 17:51", "weatherCondition": "Partly Cloudy", "temperature": 93.0, "humidity": 57.0, "visibility": 10.0, "windSpeed": 9.0, "description": "Left lane blocked due to crash on I-295 Northbound at Exits 5 5A 5B FL-13 San Jose Blvd.", "street": "I-295 Express", "city": "Jacksonville", "state": "FL", "distance": 0.0}, {"id": "A-4790633", "lat": 38.9389, "lng": -94.74774, "severity": 2, "startTime": "9/18/2022 3:16", "weatherCondition": "Fair", "temperature": 77.0, "humidity": 66.0, "visibility": 10.0, "windSpeed": 8.0, "description": "Accident from exit [222B] to I-435 W.", "street": "I-35", "city": "Lenexa", "state": "KS", "distance": 0.037000000000000005}, {"id": "A-5322204", "lat": 28.45505, "lng": -80.9819, "severity": 4, "startTime": "27:00.0", "weatherCondition": "Partly Cloudy", "temperature": 64.0, "humidity": 94.0, "visibility": 7.0, "windSpeed": 8.0, "description": "Incident on SR-520 EB near SR-528 Expect delays.", "street": "SR-520", "city": "Christmas", "state": "FL", "distance": 0.942}, {"id": "A-4188512", "lat": 33.55435, "lng": -112.03775, "severity": 2, "startTime": "6/16/2022 23:48", "weatherCondition": "Fair", "temperature": 99.0, "humidity": 8.0, "visibility": 10.0, "windSpeed": 7.0, "description": "Crash on the left shoulder on SR-51 Northbound near Northern Ave (7)", "street": "Piestewa Fwy N", "city": "Phoenix", "state": "AZ", "distance": 0.261}, {"id": "A-5196507", "lat": 42.23847, "lng": -88.05043, "severity": 4, "startTime": "7/22/2022 15:17", "weatherCondition": "Fair", "temperature": 89.0, "humidity": 34.0, "visibility": 10.0, "windSpeed": 12.0, "description": "Road closed due to accident.", "street": "N Midlothian Rd", "city": "Mundelein", "state": "IL", "distance": 0.029}, {"id": "A-744971", "lat": 39.95423, "lng": -75.14143, "severity": 3, "startTime": "1/17/2022 15:28", "weatherCondition": "Cloudy", "temperature": 38.0, "humidity": 65.0, "visibility": 10.0, "windSpeed": 17.0, "description": "Lane blocked due to accident on I-676 Benjamin Franklin Brg Westbound between New Jersey State Line and 6th St.", "street": "Benjamin Franklin Brg", "city": "Philadelphia", "state": "PA", "distance": 0.6200000047683716}, {"id": "A-705613", "lat": 33.80264, "lng": -118.08227, "severity": 3, "startTime": "2/17/2022 21:00", "weatherCondition": "Fair", "temperature": 53.0, "humidity": 53.0, "visibility": 10.0, "windSpeed": 0.0, "description": "#3 lane blocked due to crash on I-605 Southbound before Katella Ave.", "street": "I-605 S", "city": "Los Alamitos", "state": "CA", "distance": 0.0}, {"id": "A-679248", "lat": 29.58447, "lng": -98.30592, "severity": 3, "startTime": "3/12/2022 17:13", "weatherCondition": "Fair", "temperature": 55.0, "humidity": 13.0, "visibility": 10.0, "windSpeed": 0.0, "description": "Lane blocked due to crash on I-35 Northbound at Evans Rd.", "street": "Interstate 35 N", "city": "Schertz", "state": "TX", "distance": 0.0}, {"id": "A-671194", "lat": 33.94389, "lng": -118.09512, "severity": 3, "startTime": "3/19/2022 13:26", "weatherCondition": "Partly Cloudy", "temperature": 69.0, "humidity": 51.0, "visibility": 10.0, "windSpeed": 10.0, "description": "Lane blocked due to crash on I-605 Northbound at I-5.", "street": "I-605 N", "city": "Santa Fe Springs", "state": "CA", "distance": 0.0}, {"id": "A-5151652", "lat": 41.26117, "lng": -80.16569, "severity": 4, "startTime": "11/11/2022 20:36", "weatherCondition": "Light Rain", "temperature": 61.0, "humidity": 100.0, "visibility": 10.0, "windSpeed": 0.0, "description": "Crash on I-79 northbound between Exit 121: US 62 MERCER/FRANKLIN and Exit 130: PA 358 - GREENVILLE/SANDY LAKE. All lanes closed.", "street": "I-79 N", "city": "Jackson Center", "state": "PA", "distance": 8.58}, {"id": "A-724178", "lat": 30.19154, "lng": -81.7043, "severity": 3, "startTime": "2/3/2022 7:07", "weatherCondition": "Partly Cloudy", "temperature": 57.0, "humidity": 100.0, "visibility": 10.0, "windSpeed": 3.0, "description": "Lane blocked on exit ramp due to accident on I-295 Southbound at Exit 10 / US-17 Roosevelt Blvd.", "street": "W Beltway S", "city": "Jacksonville", "state": "FL", "distance": 0.0}, {"id": "A-4905428", "lat": 41.1081, "lng": -79.32048, "severity": 4, "startTime": "29:00.0", "weatherCondition": "Snow", "temperature": 30.0, "humidity": 82.0, "visibility": 0.5, "windSpeed": 9.0, "description": "Multi vehicle crash on PA 66 both directions between OLEAN TR and LIMESTONE RD. All lanes closed.", "street": "PA-66", "city": "Fairmount City", "state": "PA", "distance": 1.457}, {"id": "A-4046127", "lat": 29.96951, "lng": -90.06862, "severity": 2, "startTime": "7/27/2022 16:42", "weatherCondition": "Mostly Cloudy", "temperature": 87.0, "humidity": 65.0, "visibility": 10.0, "windSpeed": 6.0, "description": "Stationary traffic on I-10 W from N Claiborne Ave (I-10) to US-90 (New Orleans) (West) (I-10) due to accident.", "street": "Esplanade Ave", "city": "New Orleans", "state": "LA", "distance": 1.199}, {"id": "A-5393348", "lat": 40.58077, "lng": -104.6324, "severity": 4, "startTime": "37:56.0", "weatherCondition": "Fair", "temperature": 54.0, "humidity": 77.0, "visibility": 10.0, "windSpeed": 3.0, "description": "Between County Road 43 and County Road 49 (3 miles east of the Ault area) at Mile Point 159. Road closed expect delays due to a crash. Comment: Use alternate route. Between County Road 49 and County R", "street": "CO-14", "city": "Ault", "state": "CO", "distance": 0.639}, {"id": "A-557027", "lat": 37.70129, "lng": -121.87212, "severity": 3, "startTime": "7/24/2022 14:22", "weatherCondition": "Fair", "temperature": 86.0, "humidity": 32.0, "visibility": 10.0, "windSpeed": 9.0, "description": "Two lanes blocked due to crash on I-580 Eastbound at Exit 47 Santa Rita Rd.", "street": "I-580 E", "city": "Pleasanton", "state": "CA", "distance": 0.0}, {"id": "A-4653245", "lat": 28.25139, "lng": -81.49356, "severity": 4, "startTime": "11/16/2022 4:38", "weatherCondition": "Mostly Cloudy", "temperature": 72.0, "humidity": 94.0, "visibility": 3.0, "windSpeed": 7.0, "description": "Incident on AVENUE A near S ORANGE BLOSSOM TRL Road closed. Take alternate route.", "street": "Avenue A", "city": "Kissimmee", "state": "FL", "distance": 0.412}, {"id": "A-515471", "lat": 44.16018, "lng": -94.02213, "severity": 1, "startTime": "9/6/2022 8:37", "weatherCondition": "Fair", "temperature": 65.0, "humidity": 93.0, "visibility": 10.0, "windSpeed": 9.0, "description": "Crash on US-169 Southbound at CR-1 Riverfront Dr.", "street": "S Riverfront Dr", "city": "Mankato", "state": "MN", "distance": 0.0}, {"id": "A-698823", "lat": 41.91393, "lng": -87.9403, "severity": 3, "startTime": "2/24/2022 5:18", "weatherCondition": "Light Snow", "temperature": 25.0, "humidity": 69.0, "visibility": 10.0, "windSpeed": 10.0, "description": "Lane blocked due to crash on I-290 Eisenhower Expy outbound near Exit 12 York Rd.", "street": "N York St", "city": "Elmhurst", "state": "IL", "distance": 0.0}, {"id": "A-4765987", "lat": 40.88664, "lng": -74.06919, "severity": 2, "startTime": "37:20.0", "weatherCondition": "Fair", "temperature": 20.0, "humidity": 44.0, "visibility": 10.0, "windSpeed": 7.0, "description": "Incident on I-80 EXPRESS LN EB near HUDSON ST Right lane blocked. Expect delays.", "street": "I-80 Express Lane", "city": "Lodi", "state": "NJ", "distance": 3.0860000000000003}, {"id": "A-4177362", "lat": 39.81977, "lng": -85.85921, "severity": 4, "startTime": "9/30/2022 20:51", "weatherCondition": "Fair", "temperature": 50.0, "humidity": 76.0, "visibility": 10.0, "windSpeed": 6.0, "description": "I-70 E is closed from 600/Exit 96 (I-70) to IN-9/Exit 104 (I-70) due to accident.", "street": "I-70 E", "city": "Greenfield", "state": "IN", "distance": 0.657}, {"id": "A-576906", "lat": 34.09476, "lng": -118.20599, "severity": 2, "startTime": "7/2/2022 9:48", "weatherCondition": "Fair", "temperature": 73.0, "humidity": 64.0, "visibility": 10.0, "windSpeed": 0.0, "description": "Slow lane blocked due to crash on CA-110 Southbound at Exit 27 Avenue 43.", "street": "Arroyo Seco Pkwy", "city": "Los Angeles", "state": "CA", "distance": 0.0}, {"id": "A-641012", "lat": 37.46519, "lng": -77.42678, "severity": 4, "startTime": "4/22/2022 12:10", "weatherCondition": "Fair", "temperature": 72.0, "humidity": 41.0, "visibility": 10.0, "windSpeed": 6.0, "description": "Lane blocked due to crash on I-95 Northbound from Exit 67 / VA-895 Pocahontas Pkwy to Exit 69 / VA-161 Commerce Rd.", "street": "Bells Rd", "city": "Richmond", "state": "VA", "distance": 2.75}, {"id": "A-4673601", "lat": 42.97803, "lng": -83.7269, "severity": 4, "startTime": "8/5/2022 15:58", "weatherCondition": "Mostly Cloudy", "temperature": 85.0, "humidity": 63.0, "visibility": 10.0, "windSpeed": 7.0, "description": "SB I-75 Exit to Bristol Rd", "street": "I-75 S", "city": "Flint", "state": "MI", "distance": 0.314}, {"id": "A-4915364", "lat": 36.98709, "lng": -79.91576, "severity": 4, "startTime": "18:30.0", "weatherCondition": "Fair", "temperature": 38.0, "humidity": 29.0, "visibility": 10.0, "windSpeed": 6.0, "description": "On VA-40 in the County of Franklin in the vicinity of Scuffling Hill Rd; Six Mile Post Rd; Rt. 640E/W (Franklin County); / SCUFFLING HILL motorists can expect delays due to a vehicle crash. All east l", "street": "Franklin St", "city": "Rocky Mount", "state": "VA", "distance": 0.381}, {"id": "A-5319417", "lat": 38.93114, "lng": -94.65495, "severity": 2, "startTime": "10/3/2022 15:04", "weatherCondition": "Fair", "temperature": 79.0, "humidity": 30.0, "visibility": 10.0, "windSpeed": 7.0, "description": "Slow traffic on US-50 W - I-435 W from Nall Ave/Exit 77 (I-435) to US-169/Metcalf Ave/Exit 79 (I-435) due to accident.", "street": "US-50", "city": "Leawood", "state": "KS", "distance": 0.926}, {"id": "A-528870", "lat": 41.42052, "lng": -81.79669, "severity": 3, "startTime": "8/23/2022 18:44", "weatherCondition": "Fair", "temperature": 78.0, "humidity": 54.0, "visibility": 10.0, "windSpeed": 8.0, "description": "Two lanes blocked due to crash on I-480 Westbound at Exit 12A 150th St.", "street": "I-480", "city": "Cleveland", "state": "OH", "distance": 0.0}, {"id": "A-580282", "lat": 29.80887, "lng": -95.41025, "severity": 1, "startTime": "6/29/2022 8:12", "weatherCondition": "Cloudy", "temperature": 81.0, "humidity": 74.0, "visibility": 10.0, "windSpeed": 0.0, "description": "Crash on Shepherd Dr at 25th St.", "street": "N Shepherd Dr", "city": "Houston", "state": "TX", "distance": 0.0}, {"id": "A-4434709", "lat": 33.46186, "lng": -86.94324, "severity": 4, "startTime": "10/9/2022 2:06", "weatherCondition": "Fair", "temperature": 48.0, "humidity": 63.0, "visibility": 10.0, "windSpeed": 0.0, "description": "Incident on I-20 WB near MM 116 Road closed. Take alternate route.", "street": "I-20", "city": "Birmingham", "state": "AL", "distance": 0.8270000000000001}, {"id": "A-584911", "lat": 36.25607, "lng": -86.73857, "severity": 3, "startTime": "6/23/2022 11:59", "weatherCondition": "Fair", "temperature": 91.0, "humidity": 30.0, "visibility": 10.0, "windSpeed": 12.0, "description": "Left lane blocked due to crash on I-65 Southbound at Exit 92 / TN-45 Old Hickory Blvd.", "street": "I-65", "city": "Madison", "state": "TN", "distance": 0.0}, {"id": "A-738606", "lat": 35.14713, "lng": -78.8237, "severity": 3, "startTime": "1/21/2022 22:09", "weatherCondition": "Light Snow", "temperature": 25.0, "humidity": 93.0, "visibility": 1.0, "windSpeed": 7.0, "description": "Lane blocked due to accident on NC-295 Northbound at Exit 30 River Rd.", "street": "NC-295 S", "city": "Wade", "state": "NC", "distance": 0.0}, {"id": "A-4126886", "lat": 35.25595, "lng": -79.03616, "severity": 4, "startTime": "9/12/2022 15:40", "weatherCondition": "Mostly Cloudy", "temperature": 89.0, "humidity": 57.0, "visibility": 10.0, "windSpeed": 14.0, "description": "Incident on NC-24 EB near LINDEN OAKS PKWY Road closed. Take alternate route.", "street": "NC 24-87", "city": "Cameron", "state": "NC", "distance": 0.029}, {"id": "A-615002", "lat": 38.12397, "lng": -122.23003, "severity": 3, "startTime": "5/21/2022 0:01", "weatherCondition": "Fair", "temperature": 52.0, "humidity": 83.0, "visibility": 9.0, "windSpeed": 6.0, "description": "Exit ramp from I-80 Westbound at Exits 32 32A 32B to Fairgrounds Dr Northbound lane blocked due to crash.", "street": "I-80 W", "city": "Vallejo", "state": "CA", "distance": 1.2999999523162842}, {"id": "A-4517630", "lat": 45.4641, "lng": -117.96193, "severity": 4, "startTime": "2/21/2022 13:55", "weatherCondition": "Light Snow", "temperature": 31.0, "humidity": 85.0, "visibility": 9.0, "windSpeed": 10.0, "description": "Hazard @ Summerville Road -- Impact: Closure", "street": "Striker Ln", "city": "Imbler", "state": "OR", "distance": 0.035}, {"id": "A-3713494", "lat": 37.62281, "lng": -120.98604, "severity": 2, "startTime": "1/29/2022 5:12", "weatherCondition": "Fair", "temperature": 35.0, "humidity": 96.0, "visibility": 3.0, "windSpeed": 0.0, "description": "Incident on S 9TH ST near HOUSE 536 Drive with caution.", "street": "Hosmer Ave", "city": "Modesto", "state": "CA", "distance": 0.116}, {"id": "A-5367640", "lat": 35.21272, "lng": -80.85663, "severity": 2, "startTime": "1/14/2022 13:16", "weatherCondition": "Partly Cloudy", "temperature": 56.0, "humidity": 39.0, "visibility": 10.0, "windSpeed": 14.0, "description": "Slow traffic from E Kingston Ave to Cleveland Ave due to accident.", "street": "E Kingston Ave", "city": "Charlotte", "state": "NC", "distance": 0.116}, {"id": "A-588563", "lat": 41.91363, "lng": -87.99825, "severity": 1, "startTime": "6/20/2022 6:55", "weatherCondition": "Fair", "temperature": 68.0, "humidity": 56.0, "visibility": 10.0, "windSpeed": 8.0, "description": "Crash on Factory Rd near Westwood Ave.", "street": "W Factory Rd", "city": "Addison", "state": "IL", "distance": 0.0}, {"id": "A-597846", "lat": 35.15445, "lng": -80.79497, "severity": 1, "startTime": "6/9/2022 18:59", "weatherCondition": "Mostly Cloudy", "temperature": 88.0, "humidity": 34.0, "visibility": 10.0, "windSpeed": 7.0, "description": "Lane blocked due to crash on NC-16 Providence Rd at Fairview Rd.", "street": "Sardis Rd", "city": "Charlotte", "state": "NC", "distance": 0.0}, {"id": "A-709318", "lat": 34.12397, "lng": -118.47738, "severity": 3, "startTime": "2/15/2022 13:01", "weatherCondition": "Partly Cloudy", "temperature": 59.0, "humidity": 58.0, "visibility": 10.0, "windSpeed": 12.0, "description": "Lane blocked due to crash on I-405 Northbound at Exit 61 Skirball Center Dr.", "street": "I-405", "city": "Los Angeles", "state": "CA", "distance": 0.0}, {"id": "A-4448642", "lat": 28.19107, "lng": -82.4623, "severity": 2, "startTime": "1/20/2022 9:01", "weatherCondition": "Fair", "temperature": 59.0, "humidity": 100.0, "visibility": 10.0, "windSpeed": 0.0, "description": "Slow traffic on FL-54 from Collier Pkwy (FL-54) to US-41/FL-45/Land O Lakes Blvd (FL-54) due to accident.", "street": "State Road 54", "city": "Land O Lakes", "state": "FL", "distance": 0.222}, {"id": "A-634385", "lat": 25.83269, "lng": -80.20625, "severity": 3, "startTime": "4/28/2022 18:56", "weatherCondition": "Cloudy", "temperature": 76.0, "humidity": 74.0, "visibility": 10.0, "windSpeed": 5.0, "description": "Left lane blocked due to crash on I-95 Southbound at Exit 6A 5th Pl.", "street": "NW 62nd St", "city": "Miami", "state": "FL", "distance": 0.0}, {"id": "A-613036", "lat": 27.85349, "lng": -82.31208, "severity": 1, "startTime": "5/24/2022 7:27", "weatherCondition": "Fair", "temperature": null, "humidity": null, "visibility": 10.0, "windSpeed": 0.0, "description": "Crash on Boyette Rd near Cristina Dr.", "street": "Boyette Rd", "city": "Riverview", "state": "FL", "distance": 0.0}, {"id": "A-4653644", "lat": 29.73268, "lng": -95.5013, "severity": 2, "startTime": "4/14/2022 15:37", "weatherCondition": "Fair", "temperature": 82.0, "humidity": 26.0, "visibility": 10.0, "windSpeed": 15.0, "description": "Slow traffic from FM-1093/Westheimer Rd (Hillcroft St/Hillcroft Ave) to Westpark Dr (Hillcroft St/Hillcroft Ave) due to accident.", "street": "Hillcroft Ave", "city": "Houston", "state": "TX", "distance": 0.132}, {"id": "A-664229", "lat": 34.1979, "lng": -118.18591, "severity": 3, "startTime": "4/1/2022 10:40", "weatherCondition": "", "temperature": null, "humidity": null, "visibility": null, "windSpeed": null, "description": "Lane blocked due to crash on I-210 Eastbound at Exit 21 Gould Ave.", "street": "Foothill Blvd", "city": "La Canada Flintridge", "state": "CA", "distance": 0.0}, {"id": "A-537093", "lat": 36.14369, "lng": -86.68871, "severity": 3, "startTime": "8/15/2022 8:16", "weatherCondition": "Mostly Cloudy", "temperature": 76.0, "humidity": 71.0, "visibility": 10.0, "windSpeed": 6.0, "description": "Two lanes blocked and right hand shoulder blocked due to crash on I-40 Westbound before Exits 215A/ TN-155 Briley Pkwy.", "street": "I-40", "city": "Nashville", "state": "TN", "distance": 0.0}, {"id": "A-4421541", "lat": 36.14174, "lng": -86.67109, "severity": 2, "startTime": "55:01.0", "weatherCondition": "Partly Cloudy", "temperature": 90.0, "humidity": 35.0, "visibility": 10.0, "windSpeed": 18.0, "description": "Stationary traffic on I-40 W from TN-255/Donelson Pike/Exit 216 (I-40) to TN-155/Briley Pkwy/Exit 215 (I-40) due to accident.", "street": "I-40", "city": "Nashville", "state": "TN", "distance": 0.902}, {"id": "A-3911881", "lat": 41.20241, "lng": -76.78463, "severity": 4, "startTime": "8/17/2022 1:27", "weatherCondition": "Fair", "temperature": 62.0, "humidity": 93.0, "visibility": 10.0, "windSpeed": 0.0, "description": "Crash on PENN ST both directions between SOUTH WASHINGTON ST and WILLIAMS ST. All lanes closed.", "street": "S Washington St", "city": "Muncy", "state": "PA", "distance": 0.544}, {"id": "A-5155042", "lat": 31.30629, "lng": -96.89938, "severity": 4, "startTime": "39:00.0", "weatherCondition": "Mostly Cloudy", "temperature": 73.0, "humidity": 78.0, "visibility": 10.0, "windSpeed": 9.0, "description": "Incident on TX-7 EB near TX-6-BR Road closed. Take alternate route.", "street": "Craik St", "city": "Marlin", "state": "TX", "distance": 0.867}, {"id": "A-3757137", "lat": 38.88352, "lng": -77.01236, "severity": 2, "startTime": "11/4/2022 11:34", "weatherCondition": "Mostly Cloudy", "temperature": 63.0, "humidity": 78.0, "visibility": 8.0, "windSpeed": 0.0, "description": "Incident on I-395 NB near I-395 Drive with caution.", "street": "I-395 N", "city": "Washington", "state": "DC", "distance": 0.074},