[{"id": "A-4277255", "lat": 45.3737, "lng": -118.30083, "severity": 4, "startTime": "1/18/2022 9:30", "weatherCondition": "Wintry Mix", "temperature": 30.0, "humidity": 86.0, "visibility": 4.0, "windSpeed": 0.0, "description": "I-84 W - Old Oregon Trail Hwy No 6 - US-30 W - Old Oregon Trl is closed from Spring Cr. Rd./Exit 248 (I-84) to Emigrant Spring State Park/Exit 234 (I-84) due to accident.", "street": "I-84 W", "city": "La Grande", "state": "OR", "distance": 11.494000000000002}, {"id": "A-563515", "lat": 29.68168, "lng": -95.39263, "severity": 1, "startTime": "7/18/2022 7:06", "weatherCondition": "Partly Cloudy", "temperature": 78.0, "humidity": 87.0, "visibility": 8.0, "windSpeed": 3.0, "description": "Crash on FM-521 Almeda Rd at Engelmohr St.", "street": "Almeda Rd", "city": "Houston", "state": "TX", "distance": 0.0}, {"id": "A-5285218", "lat": 34.05232, "lng": -118.26332, "severity": 4, "startTime": "6/6/2022 14:47", "weatherCondition": "Fair", "temperature": 74.0, "humidity": 62.0, "visibility": 10.0, "windSpeed": 5.0, "description": "IX Summit of the Americas", "street": "Wilshire Blvd", "city": "Los Angeles", "state": "CA", "distance": 0.086}, {"id": "A-4622827", "lat": 29.64282, "lng": -82.46108, "severity": 2, "startTime": "18:00.0", "weatherCondition": "Partly Cloudy", "temperature": 69.0, "humidity": 61.0, "visibility": 10.0, "windSpeed": 9.0, "description": "Incident on SW 11TH LN near SW 112TH ST Drive with caution.", "street": "SW 11th Ln", "city": "Gainesville", "state": "FL", "distance": 0.14800000000000002}, {"id": "A-589967", "lat": 35.22577, "lng": -80.85073, "severity": 2, "startTime": "6/17/2022 18:21", "weatherCondition": "Thunder", "temperature": 81.0, "humidity": 65.0, "visibility": 10.0, "windSpeed": 0.0, "description": "Crash on US-29 Mint St both ways at Stonewall St.", "street": "S Mint St", "city": "Charlotte", "state": "NC", "distance": 0.0}, {"id": "A-549579", "lat": 30.4535, "lng": -91.15335, "severity": 1, "startTime": "8/1/2022 10:17", "weatherCondition": "Mostly Cloudy", "temperature": 88.0, "humidity": 70.0, "visibility": 10.0, "windSpeed": 7.0, "description": "Lane blocked due to crash on North St at 36th St.", "street": "North St", "city": "Baton Rouge", "state": "LA", "distance": 0.0}, {"id": "A-4298388", "lat": 33.98845, "lng": -118.39953, "severity": 2, "startTime": "6/6/2022 6:34", "weatherCondition": "Cloudy", "temperature": 64.0, "humidity": 84.0, "visibility": 10.0, "windSpeed": 6.0, "description": "Slow traffic on I-405 N - San Diego Fwy N from exit [50B] to Santa Monica Blvd (CA-2) exit [55A] due to accident.", "street": "I-405 N", "city": "Culver City", "state": "CA", "distance": 2.083}, {"id": "A-529497", "lat": 30.19375, "lng": -92.0586, "severity": 1, "startTime": "8/23/2022 7:48", "weatherCondition": "Light Rain", "temperature": 76.0, "humidity": 91.0, "visibility": 10.0, "windSpeed": 0.0, "description": "Crash on US-167 Johnston St at Camellia Blvd.", "street": "Guilbeau Rd", "city": "Lafayette", "state": "LA", "distance": 0.0}, {"id": "A-606785", "lat": 40.76786, "lng": -73.90489, "severity": 3, "startTime": "5/29/2022 23:43", "weatherCondition": "Fair", "temperature": 68.0, "humidity": 61.0, "visibility": 10.0, "windSpeed": 7.0, "description": "Right lane blocked due to crash on I-278 Brooklyn Queens Expy Eastbound at Grand Central Pkwy.", "street": "Brooklyn Queens Expy", "city": "Astoria", "state": "NY", "distance": 0.0}, {"id": "A-3792494", "lat": 42.97969, "lng": -85.6855, "severity": 2, "startTime": "25:15.0", "weatherCondition": "Cloudy", "temperature": 59.0, "humidity": 75.0, "visibility": 10.0, "windSpeed": 7.0, "description": "Incident on DAVIS AVE near HOUSE 920 Drive with caution.", "street": "9th St NW", "city": "Grand Rapids", "state": "MI", "distance": 0.124}, {"id": "A-707540", "lat": 33.52709, "lng": -86.80184, "severity": 3, "startTime": "2/16/2022 17:30", "weatherCondition": "Mostly Cloudy", "temperature": 67.0, "humidity": 44.0, "visibility": 10.0, "windSpeed": 7.0, "description": "One lane blocked due to crash on I-20 Eastbound at Exit 126A US-280 Elton B Stephens Expy.", "street": "AL-4 W", "city": "Birmingham", "state": "AL", "distance": 0.0}, {"id": "A-5377785", "lat": 32.75557, "lng": -117.10901, "severity": 2, "startTime": "08:00.0", "weatherCondition": "Cloudy", "temperature": 67.0, "humidity": 81.0, "visibility": 10.0, "windSpeed": 7.0, "description": "Incident on CA-15 SB near EL CAJON Drive with caution.", "street": "CA-15 S", "city": "San Diego", "state": "CA", "distance": 0.097}, {"id": "A-709705", "lat": 35.10625, "lng": -106.6475, "severity": 2, "startTime": "2/15/2022 7:35", "weatherCondition": "Mostly Cloudy", "temperature": 34.0, "humidity": 38.0, "visibility": 10.0, "windSpeed": 3.0, "description": "Crash on I-40 Westbound at 4th St.", "street": "I-40", "city": "Albuquerque", "state": "NM", "distance": 0.0}, {"id": "A-525290", "lat": 37.30645, "lng": -121.9055, "severity": 1, "startTime": "8/26/2022 6:04", "weatherCondition": "Cloudy", "temperature": 63.0, "humidity": 81.0, "visibility": 10.0, "windSpeed": 0.0, "description": "Crash on Glenn Ave at Willow St.", "street": "Willow St", "city": "San Jose", "state": "CA", "distance": 0.0}, {"id": "A-546358", "lat": 35.21641, "lng": -80.65633, "severity": 1, "startTime": "8/4/2022 10:07", "weatherCondition": "Fair", "temperature": 82.0, "humidity": 67.0, "visibility": 10.0, "windSpeed": 7.0, "description": "Crash on NC-24 Albemarle Rd at Denbur Dr.", "street": "Albemarle Rd", "city": "Mint Hill", "state": "NC", "distance": 0.0}, {"id": "A-4050212", "lat": 47.86772, "lng": -122.63925, "severity": 4, "startTime": "11:00.0", "weatherCondition": "Cloudy", "temperature": 56.0, "humidity": 80.0, "visibility": 10.0, "windSpeed": 13.0, "description": "Incident on WA-104 NB near MP 13 Expect delays.", "street": "State Highway 104", "city": "Port Ludlow", "state": "WA", "distance": 0.928}, {"id": "A-4619843", "lat": 40.52439, "lng": -74.29979, "severity": 2, "startTime": "11/15/2022 22:53", "weatherCondition": "Rain", "temperature": 38.0, "humidity": 91.0, "visibility": 5.0, "windSpeed": 10.0, "description": "Incident on GARDEN STATE PKWY SB near US-9 Expect long delays.", "street": "Garden State Pkwy S", "city": "Perth Amboy", "state": "NJ", "distance": 0.108}, {"id": "A-5460461", "lat": 38.69573, "lng": -76.87257, "severity": 2, "startTime": "9/20/2022 16:35", "weatherCondition": "Fair", "temperature": 82.0, "humidity": 40.0, "visibility": 10.0, "windSpeed": 13.0, "description": "Slow traffic on US-301 S - MD-5 from MD-381/Brandywine Rd (Crain Hwy/Blue Star Memorial Hwy/US-301) to McKendree Rd/Cedarville Rd (Crain Hwy/Blue Star Memorial Hwy/US-301) due to accident.", "street": "Crain Hwy", "city": "Brandywine", "state": "MD", "distance": 1.3159999999999998}, {"id": "A-4011072", "lat": 34.0145, "lng": -118.48647, "severity": 2, "startTime": "42:00.0", "weatherCondition": "Fair", "temperature": 61.0, "humidity": 17.0, "visibility": 10.0, "windSpeed": 6.0, "description": "Incident on I-10 WB near MCCLURE TUNL Drive with caution.", "street": "Santa Monica Fwy", "city": "Santa Monica", "state": "CA", "distance": 0.285}, {"id": "A-4844936", "lat": 38.23645, "lng": -122.46162, "severity": 2, "startTime": "8/25/2022 17:10", "weatherCondition": "Fair", "temperature": 70.0, "humidity": 60.0, "visibility": 10.0, "windSpeed": 8.0, "description": "Incident on CA-116 EB near BONNEAU RD Right shoulder closed.", "street": "Arnold Dr", "city": "Sonoma", "state": "CA", "distance": 0.019}, {"id": "A-4537982", "lat": 34.8175, "lng": -82.83365, "severity": 2, "startTime": "55:12.0", "weatherCondition": "Light Rain", "temperature": 70.0, "humidity": 96.0, "visibility": 4.0, "windSpeed": 10.0, "description": "Incident on MT OLIVET RD near SC-133 Drive with caution.", "street": "Mount Olivet Rd", "city": "Six Mile", "state": "SC", "distance": 0.309}, {"id": "A-3868606", "lat": 37.98108, "lng": -122.04232, "severity": 2, "startTime": "41:30.0", "weatherCondition": "Partly Cloudy", "temperature": 55.0, "humidity": 64.0, "visibility": 10.0, "windSpeed": 7.0, "description": "Stationary traffic on CA-242 S from Grant St/Solano Way (CA-242) to I-680 (CA-242) due to accident.", "street": "CA-242", "city": "Concord", "state": "CA", "distance": 1.523}, {"id": "A-4292919", "lat": 39.28819, "lng": -102.90839, "severity": 4, "startTime": "3/6/2022 9:53", "weatherCondition": "Snow", "temperature": 19.0, "humidity": 85.0, "visibility": 0.25, "windSpeed": 8.0, "description": "Between Exit 361: Limon (near Limon) and Exit 438: Rose Avenue (near Burlington) from Mile Point 362 to Mile Point 438. Road closed expect delays due to a crash.", "street": "I-70 E", "city": "Flagler", "state": "CO", "distance": 1.105}, {"id": "A-543697", "lat": 26.75579, "lng": -81.92327, "severity": 1, "startTime": "8/8/2022 7:30", "weatherCondition": "Fair", "temperature": 79.0, "humidity": 84.0, "visibility": 10.0, "windSpeed": 6.0, "description": "Crash on US-41 Tamiami Trl near French Creek Ln.", "street": "N Tamiami Trl", "city": "North Fort Myers", "state": "FL", "distance": 0.0}, {"id": "A-713076", "lat": 35.21059, "lng": -80.87478, "severity": 3, "startTime": "2/11/2022 18:42", "weatherCondition": "Fair", "temperature": 57.0, "humidity": 36.0, "visibility": 10.0, "windSpeed": 7.0, "description": "Right lane closed due to crash on I-77 Northbound at Exit 8 Remount Rd.", "street": "I-77", "city": "Charlotte", "state": "NC", "distance": 0.0}, {"id": "A-4996314", "lat": 41.57892, "lng": -87.73328, "severity": 4, "startTime": "10:47.0", "weatherCondition": "Fair", "temperature": 43.0, "humidity": 100.0, "visibility": 10.0, "windSpeed": 0.0, "description": "Closed at 175th St - Road closed due to accident.", "street": "171st St", "city": "Country Club Hills", "state": "IL", "distance": 0.099}, {"id": "A-557724", "lat": 32.95001, "lng": -85.09563, "severity": 3, "startTime": "7/22/2022 18:01", "weatherCondition": "Thunder in the Vicinity", "temperature": null, "humidity": null, "visibility": 10.0, "windSpeed": 6.0, "description": "Left lane blocked and left hand shoulder blocked due to crash on I-85 Northbound after Exit 6 Kia Blvd.", "street": "I-85", "city": "Lagrange", "state": "GA", "distance": 0.0}, {"id": "A-3841248", "lat": 35.02822, "lng": -85.36041, "severity": 4, "startTime": "4/6/2022 0:38", "weatherCondition": "Fair", "temperature": 55.0, "humidity": 86.0, "visibility": 10.0, "windSpeed": 3.0, "description": "Incident on I-24 EB near MM 177 Road closed. Take alternate route.", "street": "I-24", "city": "Chattanooga", "state": "TN", "distance": 2.175}, {"id": "A-735062", "lat": 38.19548, "lng": -85.7076, "severity": 3, "startTime": "1/25/2022 16:11", "weatherCondition": "Fair", "temperature": 33.0, "humidity": 43.0, "visibility": 10.0, "windSpeed": 10.0, "description": "Two lanes blocked due to accident on I-264 Watterson Expy Westbound at Exit 14 KY-864 Poplar Level Rd.", "street": "Poplar Level Rd", "city": "Louisville", "state": "KY", "distance": 0.0}, {"id": "A-565793", "lat": 43.01383, "lng": -83.69249, "severity": 1, "startTime": "7/15/2022 7:50", "weatherCondition": "Fair", "temperature": 65.0, "humidity": 73.0, "visibility": 10.0, "windSpeed": 3.0, "description": "Crash on 2nd St at Church St.", "street": "Church St", "city": "Flint", "state": "MI", "distance": 0.0}, {"id": "A-4218357", "lat": 40.78234, "lng": -73.59632, "severity": 2, "startTime": "58:29.0", "weatherCondition": "Cloudy", "temperature": 77.0, "humidity": 79.0, "visibility": 10.0, "windSpeed": 10.0, "description": "Slow traffic on I-495 W from NY-25/Exit 40 (I-495) to Glen Cove Rd/Exit 39 (I-495) due to accident.", "street": "Long Island Expy W", "city": "Old Westbury", "state": "NY", "distance": 0.6459999999999999}, {"id": "A-4610571", "lat": 25.59415, "lng": -80.50274, "severity": 2, "startTime": "6/27/2022 2:48", "weatherCondition": "Fair", "temperature": 77.0, "humidity": 90.0, "visibility": 10.0, "windSpeed": 0.0, "description": "Incident on SW 192ND AVE near EUREKA DR Drive with caution.", "street": "SW 184th St", "city": "Miami", "state": "FL", "distance": 0.124}, {"id": "A-4383186", "lat": 27.96487, "lng": -82.45273, "severity": 2, "startTime": "6/23/2022 14:59", "weatherCondition": "Partly Cloudy", "temperature": 93.0, "humidity": 59.0, "visibility": 10.0, "windSpeed": 5.0, "description": "Stationary traffic on I-275 S from Floribraska Ave/28th Ave/Exit 28 (I-275) to Howard Ave/Armenia Ave/Exit 24 (I-275) due to accident.", "street": "I-275 S", "city": "Tampa", "state": "FL", "distance": 1.294}, {"id": "A-601245", "lat": 35.27747, "lng": -80.76645, "severity": 1, "startTime": "6/7/2022 9:16", "weatherCondition": "Fair", "temperature": 73.0, "humidity": 78.0, "visibility": 10.0, "windSpeed": 15.0, "description": "Crash on US-29 Tryon St near NC-49.", "street": "N Tryon St", "city": "Charlotte", "state": "NC", "distance": 0.0}, {"id": "A-4234625", "lat": 41.58884, "lng": -71.99705, "severity": 4, "startTime": "4/6/2022 14:12", "weatherCondition": "Cloudy", "temperature": 48.0, "humidity": 89.0, "visibility": 10.0, "windSpeed": 14.0, "description": "1 hour or less", "street": "Governor John Davis Lodge Tpke", "city": "Jewett City", "state": "CT", "distance": 1.507}, {"id": "A-4478229", "lat": 39.40329, "lng": -77.25862, "severity": 4, "startTime": "5/29/2022 19:21", "weatherCondition": "Fair", "temperature": 79.0, "humidity": 54.0, "visibility": 10.0, "windSpeed": 0.0, "description": "Incident on MD-75 NB near NEW LONDON RD Road closed. Take alternate route.", "street": "Green Valley Rd", "city": "New Market", "state": "MD", "distance": 0.052000000000000005}, {"id": "A-680478", "lat": 39.55175, "lng": -89.64578, "severity": 3, "startTime": "3/11/2022 6:24", "weatherCondition": "Light Snow", "temperature": 21.0, "humidity": 93.0, "visibility": 3.0, "windSpeed": 10.0, "description": "Lane blocked due to crash on I-55 Northbound at Montgomery Rd.", "street": "I-55", "city": "Divernon", "state": "IL", "distance": 0.0}, {"id": "A-711082", "lat": 39.38917, "lng": -76.72401, "severity": 3, "startTime": "2/14/2022 12:05", "weatherCondition": "", "temperature": null, "humidity": null, "visibility": null, "windSpeed": null, "description": "Three lanes blocked due to crash on I-695 clockwise at Exit 21 MD-129 Park Heights Ave.", "street": "I-695 E", "city": "Pikesville", "state": "MD", "distance": 0.0}, {"id": "A-4423410", "lat": 46.27242, "lng": -106.21156, "severity": 2, "startTime": "26:46.0", "weatherCondition": "", "temperature": null, "humidity": null, "visibility": null, "windSpeed": null, "description": "Incident on I-94 WB near MM 116 Expect delays.", "street": "I-94 W", "city": "Hathaway", "state": "MT", "distance": 21.387}, {"id": "A-619462", "lat": 34.86043, "lng": -82.27052, "severity": 1, "startTime": "5/17/2022 16:48", "weatherCondition": "Fair", "temperature": 84.0, "humidity": 25.0, "visibility": 10.0, "windSpeed": 6.0, "description": "Crash on Pelham Rd at Milestone Way.", "street": "Pelham Rd", "city": "Greenville", "state": "SC", "distance": 0.0}, {"id": "A-517692", "lat": 36.94355, "lng": -120.01941, "severity": 1, "startTime": "9/2/2022 18:20", "weatherCondition": "Fair", "temperature": 105.0, "humidity": 16.0, "visibility": 10.0, "windSpeed": 10.0, "description": "Crash on Road 29 at Desha St.", "street": "Desha St", "city": "Madera", "state": "CA", "distance": 0.0}, {"id": "A-607989", "lat": 32.91301, "lng": -96.87324, "severity": 3, "startTime": "5/28/2022 15:05", "weatherCondition": "Fair", "temperature": 91.0, "humidity": 38.0, "visibility": 10.0, "windSpeed": 20.0, "description": "One lane blocked due to crash on I-635 Westbound at Exit 24 / Webb Chapel Rd.", "street": "Webb Chapel Rd", "city": "Dallas", "state": "TX", "distance": 0.0}, {"id": "A-755959", "lat": 32.37594, "lng": -86.3218, "severity": 3, "startTime": "1/4/2022 7:16", "weatherCondition": "Fair", "temperature": 31.0, "humidity": 88.0, "visibility": 10.0, "windSpeed": 0.0, "description": "Right lane blocked and shoulder blocked due to accident on I-65 Northbound after Clay St.", "street": "AL-6 W", "city": "Montgomery", "state": "AL", "distance": 0.0}, {"id": "A-595341", "lat": 32.7999, "lng": -96.78379, "severity": 1, "startTime": "6/13/2022 8:25", "weatherCondition": "Fair", "temperature": 83.0, "humidity": 67.0, "visibility": 9.0, "windSpeed": 9.0, "description": "Crash on Ross Ave at Haskell Ave.", "street": "Ross Ave", "city": "Dallas", "state": "TX", "distance": 0.0}, {"id": "A-4248887", "lat": 36.32621, "lng": -119.31414, "severity": 4, "startTime": "7/28/2022 8:36", "weatherCondition": "Fair", "temperature": 78.0, "humidity": 45.0, "visibility": 10.0, "windSpeed": 0.0, "description": "Incident on CA-63 SB near CA-201 Road closed. Take alternate route.", "street": "S Mooney Blvd", "city": "Visalia", "state": "CA", "distance": 0.337}, {"id": "A-4303158", "lat": 37.62439, "lng": -77.36893, "severity": 2, "startTime": "15:33.0", "weatherCondition": "Mostly Cloudy", "temperature": 46.0, "humidity": 40.0, "visibility": 10.0, "windSpeed": 8.0, "description": "Incident on I-295 SB near MM 38 Drive with caution.", "street": "I-295 S", "city": "Mechanicsville", "state": "VA", "distance": 0.4370000000000001}, {"id": "A-609290", "lat": 40.18302, "lng": -75.54343, "severity": 1, "startTime": "5/27/2022 8:44", "weatherCondition": "Cloudy", "temperature": 66.0, "humidity": 93.0, "visibility": 10.0, "windSpeed": 3.0, "description": "Crash on Main St at Railroad Plz.", "street": "Main St", "city": "Royersford", "state": "PA", "distance": 0.0}, {"id": "A-4417686", "lat": 41.1136, "lng": -73.805, "severity": 4, "startTime": "4/7/2022 14:31", "weatherCondition": "Light Rain", "temperature": 47.0, "humidity": 93.0, "visibility": 1.0, "windSpeed": 16.0, "description": "Taconic State Pkwy S is closed from NY-117 (Taconic State Pkwy) to Saw Mill River Pkwy (Taconic State Pkwy) due to accident.", "street": "Taconic State Pkwy", "city": "Hawthorne", "state": "NY", "distance": 0.745}, {"id": "A-4467513", "lat": 35.94831, "lng": -84.11419, "severity": 4, "startTime": "9/27/2022 0:57", "weatherCondition": "Fair", "temperature": 51.0, "humidity": 86.0, "visibility": 10.0, "windSpeed": 0.0, "description": "Incident on TN-169 WB near 5894 BOB KIRBY RD RT Road closed. Take alternate route.", "street": "Middlebrook Pike", "city": "Knoxville", "state": "TN", "distance": 0.051}, {"id": "A-3727762", "lat": 26.54572, "lng": -81.78618, "severity": 2, "startTime": "5/19/2022 8:07", "weatherCondition": "Fair", "temperature": 77.0, "humidity": 84.0, "visibility": 10.0, "windSpeed": 5.0, "description": "Slow traffic on County Hwy-876 - County Hwy-885 from Intercom Dr / Halter Ln to I-75 N due to accident.", "street": "Treeline Ave S", "city": "Fort Myers", "state": "FL", "distance": 0.184}, {"id": "A-606933", "lat": 33.31474, "lng": -82.09383, "severity": 1, "startTime": "5/30/2022 18:48", "weatherCondition": "Mostly Cloudy", "temperature": 73.0, "humidity": 84.0, "visibility": 10.0, "windSpeed": 6.0, "description": "Crash on Windsor Spring Rd Northbound at GA-88.", "street": "Windsor Spring Rd", "city": "Hephzibah", "state": "GA", "distance": 0.0}, {"id": "A-5397477", "lat": 29.73052, "lng": -95.4979, "severity": 2, "startTime": "12/9/2022 0:53", "weatherCondition": "Cloudy", "temperature": 72.0, "humidity": 93.0, "visibility": 4.0, "windSpeed": 9.0, "description": "Incident on BEVERLY HILL ST near UNITY DR Drive with caution.", "street": "Beverlyhill St", "city": "Houston", "state": "TX", "distance": 0.183}, {"id": "A-689804", "lat": 34.10463, "lng": -80.82945, "severity": 3, "startTime": "3/3/2022 16:16", "weatherCondition": "Fair", "temperature": 84.0, "humidity": 12.0, "visibility": 10.0, "windSpeed": 12.0, "description": "Lane blocked due to crash on I-20 Eastbound at Exit 82 SC-53 Spears Creek Church Rd.", "street": "I-20 W", "city": "Columbia", "state": "SC", "distance": 0.0}, {"id": "A-4016328", "lat": 35.05548, "lng": -80.84368, "severity": 4, "startTime": "9/29/2022 20:05", "weatherCondition": "Cloudy", "temperature": 63.0, "humidity": 52.0, "visibility": null, "windSpeed": 16.0, "description": "Ballantyne Commons Pkwy is closed from N Community House Rd to US-521/John J Delaney Dr due to accident.", "street": "Ballantyne Corporate Pl", "city": "Charlotte", "state": "NC", "distance": 0.369}, {"id": "A-553833", "lat": 30.37286, "lng": -81.76121, "severity": 3, "startTime": "7/27/2022 18:37", "weatherCondition": "Mostly Cloudy", "temperature": 83.0, "humidity": 82.0, "visibility": 10.0, "windSpeed": 5.0, "description": "Left lane blocked due to crash on I-295 Northbound at Exit 25 Pritchard Rd.", "street": "I-295", "city": "Jacksonville", "state": "FL", "distance": 0.0}, {"id": "A-5163076", "lat": 35.51048, "lng": -82.57883, "severity": 2, "startTime": "41:50.0", "weatherCondition": "Mostly Cloudy", "temperature": 86.0, "humidity": 53.0, "visibility": 10.0, "windSpeed": 0.0, "description": "Stationary traffic on US-74 E - I-26 E from NC-191/Exit 33 (I-26) to NC-146/Exit 37 (I-26) due to accident.", "street": "I-26 E", "city": "Asheville", "state": "NC", "distance": 0.374}, {"id": "A-579968", "lat": 27.75794, "lng": -82.72429, "severity": 1, "startTime": "6/29/2022 9:32", "weatherCondition": "Fair", "temperature": 83.0, "humidity": 79.0, "visibility": 10.0, "windSpeed": 9.0, "description": "Lane blocked due to crash on CR-138 Gulfport Blvd at 64th St.", "street": "Gulfport Blvd S", "city": "Saint Petersburg", "state": "FL", "distance": 0.0}, {"id": "A-4926207", "lat": 47.71556, "lng": -121.13582, "severity": 4, "startTime": "28:26.0", "weatherCondition": "Light Snow", "temperature": 15.0, "humidity": 77.0, "visibility": 2.0, "windSpeed": 0.0, "description": "Incident on US-2 WB near NF-6700 Take alternate route.", "street": "Stevens Pass Hwy", "city": "Skykomish", "state": "WA", "distance": 1.274}, {"id": "A-3782540", "lat": 28.48683, "lng": -81.41857, "severity": 2, "startTime": "5/12/2022 17:33", "weatherCondition": "Mostly Cloudy", "temperature": 77.0, "humidity": 62.0, "visibility": 10.0, "windSpeed": 10.0, "description": "Slow traffic on FL-423 from Winter Run Dr to Grand Central Pkwy due to accident.", "street": "Conroy Rd", "city": "Orlando", "state": "FL", "distance": 0.102}, {"id": "A-562349", "lat": 27.82105, "lng": -82.70813, "severity": 1, "startTime": "7/19/2022 7:46", "weatherCondition": "Fair", "temperature": 82.0, "humidity": 94.0, "visibility": 10.0, "windSpeed": 3.0, "description": "Lane blocked due to crash on 54th Ave near 55th St.", "street": "55th St N", "city": "St Petersburg", "state": "FL", "distance": 0.0}, {"id": "A-4410925", "lat": 39.51953, "lng": -85.72321, "severity": 4, "startTime": "12/8/2022 11:47", "weatherCondition": "Light Rain", "temperature": 46.0, "humidity": 83.0, "visibility": 5.0, "windSpeed": 6.0, "description": "Incident on I-74 WB near IN-44 Road closed. Take alternate route.", "street": "I-74 W", "city": "Shelbyville", "state": "IN", "distance": 0.455}, {"id": "A-4760257", "lat": 39.26429, "lng": -104.89492, "severity": 4, "startTime": "3/18/2022 22:52", "weatherCondition": "Fair", "temperature": 27.0, "humidity": 55.0, "visibility": 10.0, "windSpeed": 3.0, "description": "Between Exit 174: Tomah Road and Exit 173: Spruce Mountain Road (near Larkspur) at Mile Point 173. Road closed expect delays due to a crash. Comment: Closed due to multiple crashes in area", "street": "US-87", "city": "Larkspur", "state": "CO", "distance": 2.668}, {"id": "A-596006", "lat": 34.08168, "lng": -117.7195, "severity": 3, "startTime": "6/12/2022 8:04", "weatherCondition": "Fair", "temperature": 68.0, "humidity": 73.0, "visibility": 8.0, "windSpeed": 0.0, "description": "HOV lane blocked due to crash on I-10 Westbound at Exit 47 Indian Hill Blvd.", "street": "I-10 E", "city": "Claremont", "state": "CA", "distance": 0.0}, {"id": "A-554566", "lat": 35.85205, "lng": -78.69662, "severity": 3, "startTime": "7/27/2022 6:10", "weatherCondition": "Mostly Cloudy", "temperature": 76.0, "humidity": 97.0, "visibility": 10.0, "windSpeed": 9.0, "description": "Crash on US-70 Glenwood Ave at Fairhill Dr.", "street": "Glenwood Ave", "city": "Raleigh", "state": "NC", "distance": 0.0}, {"id": "A-4178104", "lat": 37.99557, "lng": -122.06684, "severity": 2, "startTime": "8/11/2022 17:17", "weatherCondition": "Fair", "temperature": 85.0, "humidity": 32.0, "visibility": 10.0, "windSpeed": 15.0, "description": "Stationary traffic on CA-4 E from I-680 (CA-4) to Willow Pass Rd (Pittsburg) (West) (CA-4) due to accident.", "street": "CA-4 E", "city": "Martinez", "state": "CA", "distance": 3.185}, {"id": "A-557600", "lat": 38.02676, "lng": -121.9357, "severity": 1, "startTime": "7/22/2022 19:10", "weatherCondition": "Fair", "temperature": 83.0, "humidity": 27.0, "visibility": 10.0, "windSpeed": 13.0, "description": "Lane blocked due to crash on Willow Pass Rd at Bella Monte Ave.", "street": "S Bella Monte Ave", "city": "Bay Point", "state": "CA", "distance": 0.0}, {"id": "A-5255579", "lat": 36.30083, "lng": -119.31383, "severity": 4, "startTime": "7/28/2022 13:06", "weatherCondition": "Fair", "temperature": 93.0, "humidity": 27.0, "visibility": 10.0, "windSpeed": 8.0, "description": "Incident on CA-63 SB near CA-201 Road closed. Take alternate route.", "street": "S Mooney Blvd", "city": "Visalia", "state": "CA", "distance": 0.036000000000000004}, {"id": "A-513547", "lat": 41.28822, "lng": -111.96909, "severity": 1, "startTime": "9/7/2022 16:07", "weatherCondition": "Fair", "temperature": 103.0, "humidity": 8.0, "visibility": 10.0, "windSpeed": 7.0, "description": "Crash on UT-235 Washington Blvd Northbound at 1625.", "street": "N Washington Blvd", "city": "Ogden", "state": "UT", "distance": 0.0}, {"id": "A-5163985", "lat": 32.74717, "lng": -117.15954, "severity": 2, "startTime": "41:32.0", "weatherCondition": "Mostly Cloudy", "temperature": 64.0, "humidity": 56.0, "visibility": 10.0, "windSpeed": 18.0, "description": "Slow traffic from Robinson Ave to 5th Ave due to accident.", "street": "6th Ave", "city": "San Diego", "state": "CA", "distance": 0.095}, {"id": "A-632193", "lat": 42.9412, "lng": -85.67806, "severity": 3, "startTime": "5/1/2022 19:02", "weatherCondition": "Light Rain", "temperature": 49.0, "humidity": 83.0, "visibility": 10.0, "windSpeed": 12.0, "description": "Lane blocked due to crash on US-131 Northbound from Exits 82A 82B Burton St to Exit 83A Shamrock/Hall Conn.", "street": "US-131 S", "city": "Grand Rapids", "state": "MI", "distance": 1.4900000095367432}, {"id": "A-517528", "lat": 42.00539, "lng": -88.14472, "severity": 1, "startTime": "9/2/2022 4:08", "weatherCondition": "Fair", "temperature": 68.0, "humidity": 84.0, "visibility": 10.0, "windSpeed": 3.0, "description": "Crash on Barrington Rd near IL-19 Irving Park Rd.", "street": "E Irving Park Rd", "city": "Hanover Park", "state": "IL", "distance": 0.0}, {"id": "A-519789", "lat": 33.99783, "lng": -117.55012, "severity": 3, "startTime": "9/1/2022 7:08", "weatherCondition": "Partly Cloudy", "temperature": 80.0, "humidity": 38.0, "visibility": 10.0, "windSpeed": 6.0, "description": "#1 lane blocked due to crash on I-15 Northbound before Exit 103 Limonite Ave.", "street": "I-15", "city": "Mira Loma", "state": "CA", "distance": 0.0}, {"id": "A-580345", "lat": 30.2276, "lng": -97.6204, "severity": 1, "startTime": "6/29/2022 5:57", "weatherCondition": "Fair", "temperature": 68.0, "humidity": 73.0, "visibility": 10.0, "windSpeed": 5.0, "description": "Crash on Tesla Rd at TX-130-TOLL Exit 446.", "street": "TX-45-TOLL", "city": "Del Valle", "state": "TX", "distance": 0.0}, {"id": "A-4039798", "lat": 33.54903, "lng": -84.26865, "severity": 2, "startTime": "12/9/2022 5:50", "weatherCondition": "Mostly Cloudy", "temperature": 64.0, "humidity": 87.0, "visibility": 10.0, "windSpeed": 5.0, "description": "Stationary traffic on GA-413 N - I-675 N from I-75 (I-675) to Ellenwood Rd/Exit 5 (I-675) due to accident.", "street": "GA-413 N", "city": "Stockbridge", "state": "GA", "distance": 4.279}, {"id": "A-5237546", "lat": 43.42134, "lng": -88.20767, "severity": 4, "startTime": "8/25/2022 11:43", "weatherCondition": "Cloudy", "temperature": 68.0, "humidity": 94.0, "visibility": 10.0, "windSpeed": 9.0, "description": "Incident on US-45 SB near WI-33 Road closed. Take alternate route.", "street": "US-45 S", "city": "West Bend", "state": "WI", "distance": 0.092}, {"id": "A-663099", "lat": 36.67439, "lng": -80.71018, "severity": 4, "startTime": "4/3/2022 15:26", "weatherCondition": "Fair", "temperature": 53.0, "humidity": 25.0, "visibility": 10.0, "windSpeed": 14.0, "description": "Lane blocked due to crash on I-77 Southbound from Exit 14 US-221 Carrollton Pike to Exit 8 VA-148 Chances Creek Rd.", "street": "I-77 S", "city": "Fancy Gap", "state": "VA", "distance": 10.029999732971193}, {"id": "A-571911", "lat": 42.24506, "lng": -71.20133, "severity": 1, "startTime": "7/8/2022 7:17", "weatherCondition": "Mostly Cloudy", "temperature": 65.0, "humidity": 90.0, "visibility": 10.0, "windSpeed": 0.0, "description": "Crash on 128 Northbound at MA-109 High St.", "street": "High St", "city": "Dedham", "state": "MA", "distance": 0.0}, {"id": "A-3802914", "lat": 37.42139, "lng": -76.8245, "severity": 4, "startTime": "7/20/2022 13:12", "weatherCondition": "", "temperature": null, "humidity": null, "visibility": null, "windSpeed": null, "description": "On I-64 at mile marker 227.3 in the County of James City near Old Stage Road motorists can expect delays due to a vehicle crash. All west lanes are closed.", "street": "I-64 W", "city": "Toano", "state": "VA", "distance": 0.271}, {"id": "A-549070", "lat": 39.73811, "lng": -104.82513, "severity": 3, "startTime": "8/1/2022 17:54", "weatherCondition": "Mostly Cloudy", "temperature": 90.0, "humidity": 16.0, "visibility": 10.0, "windSpeed": 12.0, "description": "Right lane blocked due to crash on I-225 Southbound between Exit 12 I-70 and Exit 10A I-70-BL Colfax Ave.", "street": "I-225 N", "city": "Aurora", "state": "CO", "distance": 3.7200000286102295}, {"id": "A-529935", "lat": 27.93241, "lng": -82.40191, "severity": 2, "startTime": "8/23/2022 6:12", "weatherCondition": "Fair", "temperature": null, "humidity": null, "visibility": 10.0, "windSpeed": 0.0, "description": "Lane blocked due to crash on US-41 50th St near 17th Ave.", "street": "17th Ave S", "city": "Tampa", "state": "FL", "distance": 0.0}, {"id": "A-3809570", "lat": 34.87906, "lng": -82.40931, "severity": 2, "startTime": "10/17/2022 10:03", "weatherCondition": "Fair", "temperature": 67.0, "humidity": 68.0, "visibility": 10.0, "windSpeed": 8.0, "description": "Incident on AMERICAN CT near KERNS AVE Expect delays.", "street": "Pickett St", "city": "Greenville", "state": "SC", "distance": 0.112}, {"id": "A-573259", "lat": 33.35471, "lng": -84.76053, "severity": 3, "startTime": "7/6/2022 4:05", "weatherCondition": "Fair", "temperature": 74.0, "humidity": 97.0, "visibility": 10.0, "windSpeed": 0.0, "description": "Right lane blocked and right hand shoulder blocked due to crash on I-85 Northbound at Exit 44 Poplar Rd.", "street": "I-85", "city": "Newnan", "state": "GA", "distance": 0.0}, {"id": "A-3806229", "lat": 36.67356, "lng": -78.53211, "severity": 4, "startTime": "7/14/2022 12:18", "weatherCondition": "Fair", "temperature": 80.0, "humidity": 64.0, "visibility": 10.0, "windSpeed": 0.0, "description": "On Rt. 863 in the County of Mecklenburg in the vicinity of Wilbourne Rd; Rt. 701N/S (Mecklenburg County) motorists can expect delays due to a vehicle crash. All east lanes are closed. All west lanes a", "street": "Wilbourne Rd", "city": "Skipwith", "state": "VA", "distance": 0.32299999999999995}, {"id": "A-566090", "lat": 35.83632, "lng": -78.63613, "severity": 1, "startTime": "7/14/2022 17:21", "weatherCondition": "Cloudy", "temperature": 89.0, "humidity": 48.0, "visibility": 10.0, "windSpeed": 5.0, "description": "Crash on Cardinal North Hills St near Park At North Hills St.", "street": "Cardinal North Hills St", "city": "Raleigh", "state": "NC", "distance": 0.0}, {"id": "A-585726", "lat": 39.73838, "lng": -84.14044, "severity": 1, "startTime": "6/22/2022 16:49", "weatherCondition": "Mostly Cloudy", "temperature": 86.0, "humidity": 55.0, "visibility": 10.0, "windSpeed": 15.0, "description": "Crash on Wayne Ave at Smithville Rd.", "street": "S Smithville Rd", "city": "Kettering", "state": "OH", "distance": 0.0}, {"id": "A-4535416", "lat": 37.63148, "lng": -122.08446, "severity": 2, "startTime": "12/7/2022 6:19", "weatherCondition": "Fair", "temperature": 41.0, "humidity": 89.0, "visibility": 10.0, "windSpeed": 6.0, "description": "Slow traffic on CA-84 E - Nimitz Fwy S - I-880 S from CA-92/Jackson St (I-880) to Auto Mall Pkwy (I-880) due to accident.", "street": "W Tennyson Rd", "city": "Hayward", "state": "CA", "distance": 10.126}, {"id": "A-578960", "lat": 43.12487, "lng": -77.61427, "severity": 1, "startTime": "6/30/2022 8:10", "weatherCondition": "Mostly Cloudy", "temperature": 61.0, "humidity": 87.0, "visibility": 10.0, "windSpeed": 5.0, "description": "Crash on Elmwood Ave at Cook St.", "street": "Elmwood Ave", "city": "Rochester", "state": "NY", "distance": 0.0}, {"id": "A-4042509", "lat": 33.65661, "lng": -84.49755, "severity": 2, "startTime": "11/10/2022 22:57", "weatherCondition": "Light Rain / Windy", "temperature": 64.0, "humidity": 90.0, "visibility": 8.0, "windSpeed": 22.0, "description": "Incident on I-285 NB near CAMP CREEK PKY Road closed. Take alternate route.", "street": "Camp Creek Pkwy", "city": "Atlanta", "state": "GA", "distance": 1.16}, {"id": "A-665029", "lat": 39.61957, "lng": -83.60761, "severity": 3, "startTime": "4/1/2022 5:47", "weatherCondition": "Wintry Mix", "temperature": 36.0, "humidity": 89.0, "visibility": null, "windSpeed": 10.0, "description": "Lane blocked due to crash on I-71 Northbound between Exit 58 / OH-72 and Exit 65 / OH-435.", "street": "I-71 N", "city": "Jeffersonville", "state": "OH", "distance": 11.770000457763672}, {"id": "A-3835021", "lat": 33.95633, "lng": -117.30656, "severity": 2, "startTime": "8/16/2022 16:19", "weatherCondition": "Fair", "temperature": 99.0, "humidity": 21.0, "visibility": 10.0, "windSpeed": 18.0, "description": "Incident on I-215 SB near BOX SPRINGS RD Drive with caution.", "street": "CA-60 E", "city": "Riverside", "state": "CA", "distance": 0.885}, {"id": "A-657416", "lat": 39.95803, "lng": -75.16387, "severity": 3, "startTime": "4/7/2022 22:57", "weatherCondition": "Light Rain", "temperature": 52.0, "humidity": 86.0, "visibility": 5.0, "windSpeed": 9.0, "description": "Lane blocked due to crash on I-676 Vine St Expy Westbound from 6th St to Vine St.", "street": "I-676 E", "city": "Philadelphia", "state": "PA", "distance": 1.6299999952316284}, {"id": "A-514948", "lat": 42.04991, "lng": -71.88058, "severity": 1, "startTime": "9/6/2022 17:28", "weatherCondition": "Light Rain", "temperature": 61.0, "humidity": 100.0, "visibility": 2.0, "windSpeed": 6.0, "description": "Crash on MA-12 Main St both ways at Frederick St.", "street": "S Main St", "city": "Webster", "state": "MA", "distance": 0.0}, {"id": "A-4757892", "lat": 28.02778, "lng": -82.21593, "severity": 2, "startTime": "9/12/2022 11:38", "weatherCondition": "Mostly Cloudy", "temperature": 88.0, "humidity": 62.0, "visibility": 10.0, "windSpeed": 5.0, "description": "Stationary traffic on I-4 W from Branch Forbes Rd/Exit 10 (I-4) to CR-579/Exit 8 (I-4) due to accident.", "street": "Fritzke Rd", "city": "Dover", "state": "FL", "distance": 5.124}, {"id": "A-513005", "lat": 32.78554, "lng": -96.76709, "severity": 1, "startTime": "9/8/2022 7:11", "weatherCondition": "Fair", "temperature": 76.0, "humidity": 87.0, "visibility": 10.0, "windSpeed": 6.0, "description": "Crash on Ash Ln at Haskell Ave.", "street": "S Haskell Ave", "city": "Dallas", "state": "TX", "distance": 0.0}, {"id": "A-4450389", "lat": 37.73737, "lng": -79.4256, "severity": 4, "startTime": "37:00.0", "weatherCondition": "Cloudy", "temperature": 65.0, "humidity": 74.0, "visibility": 10.0, "windSpeed": 8.0, "description": "On I-81 at mile marker 187 in the County of Rockbridge motorists can expect delays due to a vehicle crash. All south lanes are closed.", "street": "I-81 S", "city": "Lexington", "state": "VA", "distance": 0.609}, {"id": "A-4367976", "lat": 37.34328, "lng": -120.6099, "severity": 2, "startTime": "38:00.0", "weatherCondition": "Fair", "temperature": 57.0, "humidity": 63.0, "visibility": 7.0, "windSpeed": 0.0, "description": "Accident on CA-99 S from Applegate Rd/Winton Way (CA-99 Bus/Atwater Blvd) to CA-99 (Atwater) (East) (CA-99 Bus/Atwater Blvd).", "street": "CA-99 S", "city": "Atwater", "state": "CA", "distance": 1.598}, {"id": "A-557666", "lat": 34.05585, "lng": -118.45179, "severity": 3, "startTime": "7/22/2022 16:02", "weatherCondition": "Fair", "temperature": 73.0, "humidity": 68.0, "visibility": 10.0, "windSpeed": 12.0, "description": "#3 lane blocked due to crash on I-405 Southbound at Exit 55B-C Wilshire Blvd.", "street": "55C", "city": "Los Angeles", "state": "CA", "distance": 0.0}, {"id": "A-620688", "lat": 39.97813, "lng": -75.20179, "severity": 3, "startTime": "5/16/2022 20:29", "weatherCondition": "Mostly Cloudy", "temperature": 68.0, "humidity": 78.0, "visibility": 10.0, "windSpeed": 8.0, "description": "Lane blocked due to crash on I-76 Westbound before Exit 341.", "street": "Schuylkill Expy", "city": "Philadelphia", "state": "PA", "distance": 0.0}, {"id": "A-568227", "lat": 34.06631, "lng": -81.16956, "severity": 1, "startTime": "7/13/2022 8:43", "weatherCondition": "Cloudy", "temperature": 77.0, "humidity": 94.0, "visibility": 10.0, "windSpeed": 6.0, "description": "Crash on Harbison Blvd at SC-36 St Andrews Rd.", "street": "Emory Ln", "city": "Columbia", "state": "SC", "distance": 0.0}, {"id": "A-5358238", "lat": 25.92602, "lng": -80.24542, "severity": 2, "startTime": "5/24/2022 15:04", "weatherCondition": "Fair", "temperature": 87.0, "humidity": 51.0, "visibility": 10.0, "windSpeed": 17.0, "description": "Slow traffic from FL-826/NW 37th Ave/Douglas Rd (FL-826 Frontage/NW 167th St) to FL-817/FL-826/27th Ave/Unity Blvd (FL-826 Frontage/NW 167th St) due to accident.", "street": "NW 167th St", "city": "Opa Locka", "state": "FL", "distance": 0.11}, {"id": "A-604439", "lat": 35.56568, "lng": -97.56717, "severity": 1, "startTime": "6/1/2022 16:32", "weatherCondition": "T-Storm", "temperature": 69.0, "humidity": 87.0, "visibility": 7.0, "windSpeed": 7.0, "description": "Crash on May Ave at Britton Rd.", "street": "W Britton Rd", "city": "Oklahoma City", "state": "OK", "distance": 0.0}, {"id": "A-5106740", "lat": 33.33884, "lng": -91.90183, "severity": 4, "startTime": "13:54.0", "weatherCondition": "Fair", "temperature": 76.0, "humidity": 38.0, "visibility": 10.0, "windSpeed": 6.0, "description": "Incident on AR-8 EB near STATE HWY-133 Road closed. Take alternate route.", "street": "Ar 8 Hwy W", "city": "Hamburg", "state": "AR", "distance": 0.244}, {"id": "A-570292", "lat": 40.04103, "lng": -76.30734, "severity": 1, "startTime": "7/11/2022 7:41", "weatherCondition": "Fair", "temperature": 68.0, "humidity": 76.0, "visibility": 10.0, "windSpeed": 0.0, "description": "Crash on PA-23 Chestnut St at Market St.", "street": "W Chestnut St", "city": "Lancaster", "state": "PA", "distance": 0.0}, {"id": "A-3748400", "lat": 33.62367, "lng": -112.33077, "severity": 4, "startTime": "48:53.0", "weatherCondition": "Fair", "temperature": 77.0, "humidity": 11.0, "visibility": 10.0, "windSpeed": 8.0, "description": "Construction on US-60 WB near W THOMPSON RANCH RD Road closed. Take alternate route.", "street": "W Grand Ave", "city": "El Mirage", "state": "AZ", "distance": 0.441}, {"id": "A-3778846", "lat": 41.07487, "lng": -77.59165, "severity": 2, "startTime": "11/11/2022 8:54", "weatherCondition": "Rain", "temperature": 55.0, "humidity": 100.0, "visibility": 2.0, "windSpeed": 0.0, "description": "Crash on PA 150 both directions between MONUMENT OVISTON RD and LUSK RUN RD. All lanes closed.", "street": "Main St", "city": "Beech Creek", "state": "PA", "distance": 5.207999999999998}, {"id": "A-628435", "lat": 35.69843, "lng": -78.5845, "severity": 1, "startTime": "5/4/2022 16:53", "weatherCondition": "Mostly Cloudy", "temperature": 87.0, "humidity": 49.0, "visibility": 10.0, "windSpeed": 9.0, "description": "Crash on Cabela Dr both ways at Jones Sausage Rd.", "street": "Jones Sausage Rd", "city": "Garner", "state": "NC", "distance": 0.0}, {"id": "A-716387", "lat": 26.11898, "lng": -80.34829, "severity": 3, "startTime": "2/9/2022 10:37", "weatherCondition": "Light Rain", "temperature": 62.0, "humidity": 90.0, "visibility": 10.0, "windSpeed": 10.0, "description": "Entry ramp to I-75 Southbound from I-595 Westbound lane blocked due to crash.", "street": "W State Road 84", "city": "Fort Lauderdale", "state": "FL", "distance": 1.75}, {"id": "A-551342", "lat": 29.95393, "lng": -90.08659, "severity": 3, "startTime": "7/29/2022 15:14", "weatherCondition": "Mostly Cloudy", "temperature": 88.0, "humidity": 70.0, "visibility": 10.0, "windSpeed": 0.0, "description": "Left lane blocked due to crash on I-10 Westbound at Exit 234B US-90-BR.", "street": "S Prieur St", "city": "New Orleans", "state": "LA", "distance": 0.0}, {"id": "A-734598", "lat": 37.46081, "lng": -122.2905, "severity": 3, "startTime": "1/25/2022 17:57", "weatherCondition": "Fair", "temperature": 52.0, "humidity": 82.0, "visibility": 8.0, "windSpeed": 5.0, "description": "#4 lane blocked due to accident on I-280 Northbound near Canada Rd.", "street": "I-280 N", "city": "Redwood City", "state": "CA", "distance": 0.0}, {"id": "A-662878", "lat": 26.61961, "lng": -81.71498, "severity": 2, "startTime": "4/4/2022 7:14", "weatherCondition": "Fair", "temperature": 68.0, "humidity": 90.0, "visibility": 10.0, "windSpeed": 5.0, "description": "Crash on Gunnery Rd at 7th St.", "street": "7th St W", "city": "Lehigh Acres", "state": "FL", "distance": 0.0}, {"id": "A-4633462", "lat": 32.25016, "lng": -110.97624, "severity": 2, "startTime": "39:00.0", "weatherCondition": "Mostly Cloudy", "temperature": 76.0, "humidity": 71.0, "visibility": 10.0, "windSpeed": 5.0, "description": "Stationary traffic on W Grant Rd from N Oracle Rd to N 1st Ave (E Grant Rd) due to accident.", "street": "W Grant Rd", "city": "Tucson", "state": "AZ", "distance": 0.391}, {"id": "A-528221", "lat": 30.65668, "lng": -91.10287, "severity": 1, "startTime": "8/24/2022 10:40", "weatherCondition": "T-Storm", "temperature": 75.0, "humidity": 94.0, "visibility": 7.0, "windSpeed": 8.0, "description": "Crash on LA-67 Plank Rd at Redwood Lake Blvd.", "street": "Plank Rd", "city": "Zachary", "state": "LA", "distance": 0.0}, {"id": "A-518233", "lat": 32.66164, "lng": -96.72595, "severity": 3, "startTime": "9/2/2022 13:17", "weatherCondition": "Light Rain", "temperature": 74.0, "humidity": 93.0, "visibility": 5.0, "windSpeed": 7.0, "description": "One lane blocked due to crash on I-45 Southbound at Exits 276A 276B I-20 Exits 473B 473C.", "street": "276A", "city": "Dallas", "state": "TX", "distance": 0.0}, {"id": "A-3990382", "lat": 29.12862, "lng": -82.16882, "severity": 4, "startTime": "59:00.0", "weatherCondition": "Fair", "temperature": 86.0, "humidity": 40.0, "visibility": 10.0, "windSpeed": 5.0, "description": "Incident on SW 58TH ST near SW 27TH AVE Road closed. Take alternate route.", "street": "SW 27th Ave", "city": "Ocala", "state": "FL", "distance": 0.614}, {"id": "A-4329429", "lat": 25.7383, "lng": -80.38461, "severity": 4, "startTime": "1/24/2022 15:57", "weatherCondition": "Fair", "temperature": 65.0, "humidity": 39.0, "visibility": 10.0, "windSpeed": 6.0, "description": "Incident on FLORIDA'S TPKE SB near EXIT 23 Road closed. Take alternate route.", "street": "Florida's Tpke", "city": "Miami", "state": "FL", "distance": 0.507}, {"id": "A-530110", "lat": 32.67237, "lng": -96.98496, "severity": 3, "startTime": "8/22/2022 18:18", "weatherCondition": "Light Rain", "temperature": 77.0, "humidity": 94.0, "visibility": 10.0, "windSpeed": 5.0, "description": "Lane blocked due to crash on I-20 Eastbound at FM-1382 Belt Line Rd.", "street": "S Belt Line Rd", "city": "Grand Prairie", "state": "TX", "distance": 0.0}, {"id": "A-754814", "lat": 34.06787, "lng": -117.39828, "severity": 3, "startTime": "1/4/2022 19:36", "weatherCondition": "Fair", "temperature": 50.0, "humidity": 61.0, "visibility": 10.0, "windSpeed": 0.0, "description": "Exit ramp from I-10 Eastbound at Exit 66 to Cedar Ave Southbound lane blocked due to accident.", "street": "I-10 E", "city": "Bloomington", "state": "CA", "distance": 0.8399999737739563}, {"id": "A-5398644", "lat": 34.02995, "lng": -118.44211, "severity": 2, "startTime": "6/7/2022 13:33", "weatherCondition": "Mostly Cloudy", "temperature": 69.0, "humidity": 78.0, "visibility": 8.0, "windSpeed": 9.0, "description": "Stationary traffic from exit [3A] to I-405 N due to accident.", "street": "Santa Monica Fwy", "city": "Los Angeles", "state": "CA", "distance": 0.526}, {"id": "A-638437", "lat": 38.56952, "lng": -90.44067, "severity": 3, "startTime": "4/25/2022 16:24", "weatherCondition": "Mostly Cloudy", "temperature": 58.0, "humidity": 44.0, "visibility": 10.0, "windSpeed": 15.0, "description": "Two lanes blocked due to crash on I-270 Southbound at Exit 7 Big Bend Rd.", "street": "I-270 S", "city": "Saint Louis", "state": "MO", "distance": 0.0}, {"id": "A-608962", "lat": 41.56561, "lng": -87.74218, "severity": 3, "startTime": "5/27/2022 5:43", "weatherCondition": "Cloudy", "temperature": 55.0, "humidity": 100.0, "visibility": 7.0, "windSpeed": 6.0, "description": "Lane blocked due to crash on I-57 Northbound at Exit 345B / I-80.", "street": "I-57", "city": "Country Club Hills", "state": "IL", "distance": 0.0}, {"id": "A-4278896", "lat": 38.36801, "lng": -75.07143, "severity": 2, "startTime": "4/29/2022 5:48", "weatherCondition": "Fair", "temperature": 32.0, "humidity": 82.0, "visibility": 10.0, "windSpeed": 3.0, "description": "41ST ST NORTH/SOUTH AT MD 528", "street": "Coastal Hwy", "city": "Ocean City", "state": "MD", "distance": 0.012}, {"id": "A-5420901", "lat": 32.84469, "lng": -117.11968, "severity": 2, "startTime": "12/20/2022 16:43", "weatherCondition": "Fair", "temperature": 58.0, "humidity": 51.0, "visibility": 10.0, "windSpeed": 5.0, "description": "Accident from Clairemont Mesa Blvd (CA-52) exit [11] to CA-52 W.", "street": "", "city": "San Diego", "state": "CA", "distance": 0.193}, {"id": "A-5089515", "lat": 43.68963, "lng": -84.7576, "severity": 4, "startTime": "2/7/2022 9:20", "weatherCondition": "Light Snow", "temperature": 28.0, "humidity": 89.0, "visibility": 1.0, "windSpeed": 0.0, "description": "Incident on US-127 SB near ROSEBUSH RD Road closed. Take alternate route.", "street": "US-127 S", "city": "Rosebush", "state": "MI", "distance": 2.077}, {"id": "A-3805707", "lat": 39.71089, "lng": -104.22341, "severity": 4, "startTime": "4/7/2022 7:01", "weatherCondition": "", "temperature": null, "humidity": null, "visibility": null, "windSpeed": null, "description": "Between US 36 and 3rd Avenue from Mile Point 338.57 to Mile Point 399. Road closed expect delays due to a crash. Comment: US 40 closed both directions between Hugo and CO 94 due to crash alternate rou", "street": "N Main St", "city": "Byers", "state": "CO", "distance": 0.316}, {"id": "A-655992", "lat": 35.48237, "lng": -97.52557, "severity": 2, "startTime": "4/8/2022 7:21", "weatherCondition": "Fair", "temperature": 43.0, "humidity": 42.0, "visibility": 10.0, "windSpeed": 16.0, "description": "Crash on 13th St at Shartel Ave.", "street": "NW 13th St", "city": "Oklahoma City", "state": "OK", "distance": 0.0}, {"id": "A-4895854", "lat": 30.51542, "lng": -83.05481, "severity": 2, "startTime": "3/24/2022 10:56", "weatherCondition": "Rain", "temperature": 61.0, "humidity": 97.0, "visibility": 2.0, "windSpeed": 0.0, "description": "Incident on I-75 SB near MM 454 Drive with caution.", "street": "I-75", "city": "Jasper", "state": "FL", "distance": 6.974}, {"id": "A-4590041", "lat": 34.01909, "lng": -118.48537, "severity": 2, "startTime": "3/20/2022 18:06", "weatherCondition": "Fair", "temperature": 65.0, "humidity": 54.0, "visibility": 10.0, "windSpeed": 12.0, "description": "Accident from Olympic Blvd (11th St) to Colorado Ave (11th St).", "street": "11th St", "city": "Santa Monica", "state": "CA", "distance": 0.007}, {"id": "A-3826148", "lat": 25.7462, "lng": -80.43475, "severity": 2, "startTime": "2/23/2022 15:28", "weatherCondition": "Fair", "temperature": 80.0, "humidity": 58.0, "visibility": 10.0, "windSpeed": 12.0, "description": "Incident on SW 148TH CT near SW 24TH ST Drive with caution.", "street": "SW 148th Ct", "city": "Miami", "state": "FL", "distance": 0.097}, {"id": "A-4431312", "lat": 41.3179, "lng": -72.49345, "severity": 4, "startTime": "48:17.0", "weatherCondition": "Mostly Cloudy", "temperature": 59.0, "humidity": 67.0, "visibility": 10.0, "windSpeed": 5.0, "description": "Incident on STATE RTE-145 NB near OTHER RD Road closed. Take alternate route.", "street": "Horse Hill Rd", "city": "Westbrook", "state": "CT", "distance": 0.16}, {"id": "A-4984944", "lat": 47.02729, "lng": -93.9334, "severity": 2, "startTime": "15:42.0", "weatherCondition": "Partly Cloudy", "temperature": 52.0, "humidity": 71.0, "visibility": 10.0, "windSpeed": 3.0, "description": "Incident on MN-6 near WAGONBACH LN Drive with caution.", "street": "State Highway 6 NE", "city": "Remer", "state": "MN", "distance": 0.425}, {"id": "A-693899", "lat": 47.68774, "lng": -122.32676, "severity": 3, "startTime": "2/28/2022 12:45", "weatherCondition": "Light Rain", "temperature": 54.0, "humidity": 100.0, "visibility": 3.0, "windSpeed": 8.0, "description": "Exit ramp from I-5 Northbound at Exit 172 to N 85th St Westbound lane blocked due to crash.", "street": "I-5 N", "city": "Seattle", "state": "WA", "distance": 1.2799999713897705}, {"id": "A-577934", "lat": 43.17921, "lng": -77.67472, "severity": 1, "startTime": "7/1/2022 4:07", "weatherCondition": "Partly Cloudy", "temperature": 70.0, "humidity": 61.0, "visibility": 10.0, "windSpeed": 10.0, "description": "Crash on Lexington Ave at Kodak Park.", "street": "Kodak Park", "city": "Rochester", "state": "NY", "distance": 0.0}, {"id": "A-5122387", "lat": 40.4451, "lng": -79.98943, "severity": 4, "startTime": "26:00.0", "weatherCondition": "Fair", "temperature": 25.0, "humidity": 78.0, "visibility": 9.0, "windSpeed": 13.0, "description": "Multi vehicle crash on PA 380 eastbound between LC FROM SEVENTH AV and HERRON AV. All lanes closed.", "street": "Bigelow Blvd", "city": "Pittsburgh", "state": "PA", "distance": 1.41}, {"id": "A-4422023", "lat": 38.04192, "lng": -78.00463, "severity": 4, "startTime": "23:00.0", "weatherCondition": "Partly Cloudy", "temperature": 77.0, "humidity": 54.0, "visibility": 10.0, "windSpeed": 8.0, "description": "On Rt. 669 in the County of Louisa in the vicinity of County/City/Town Line: LOUISA motorists can expect delays due to a vehicle crash. All north lanes are closed. All south lanes are closed.", "street": "Ellisville Dr", "city": "Louisa", "state": "VA", "distance": 0.153}, {"id": "A-5014991", "lat": 32.80212, "lng": -117.2416, "severity": 2, "startTime": "12/21/2022 14:36", "weatherCondition": "Fair", "temperature": 64.0, "humidity": 58.0, "visibility": 10.0, "windSpeed": 7.0, "description": "Incident on INGRAHAM ST near DIAMOND ST Drive with caution.", "street": "Ingraham St", "city": "San Diego", "state": "CA", "distance": 0.032}, {"id": "A-4141359", "lat": 38.26845, "lng": -78.87056, "severity": 4, "startTime": "12/21/2022 6:54", "weatherCondition": "Fair", "temperature": 15.0, "humidity": 92.0, "visibility": 10.0, "windSpeed": 0.0, "description": "Incident on VA-256 EB near SULFUR PUMP RD Road closed. Take alternate route.", "street": "Sulfur Pump Rd", "city": "Weyers Cave", "state": "VA", "distance": 0.184}, {"id": "A-5177721", "lat": 36.02254, "lng": -94.18968, "severity": 2, "startTime": "7/21/2022 15:37", "weatherCondition": "Fair", "temperature": 95.0, "humidity": 41.0, "visibility": 10.0, "windSpeed": 5.0, "description": "Incident on I-49 SB near I-49 Right shoulder closed.", "street": "I-49", "city": "Fayetteville", "state": "AR", "distance": 1.487}, {"id": "A-4111408", "lat": 34.1301, "lng": -117.92526, "severity": 2, "startTime": "7/16/2022 10:51", "weatherCondition": "Fair", "temperature": 76.0, "humidity": 62.0, "visibility": 8.0, "windSpeed": 3.0, "description": "Incident on I-210 WB near GRAND AVE Expect delays.", "street": "Foothill Fwy W", "city": "Azusa", "state": "CA", "distance": 0.986}, {"id": "A-4200032", "lat": 38.57962, "lng": -79.16893, "severity": 4, "startTime": "2/17/2022 19:35", "weatherCondition": "Rain", "temperature": 60.0, "humidity": 81.0, "visibility": 10.0, "windSpeed": 6.0, "description": "Incident on US-33 EB near US-33 Road closed. Take alternate route.", "street": "Shenandoah Mtn", "city": "Brandywine", "state": "WV", "distance": 0.073}, {"id": "A-612345", "lat": 34.06045, "lng": -118.17338, "severity": 3, "startTime": "5/24/2022 15:54", "weatherCondition": "Fair", "temperature": 69.0, "humidity": 63.0, "visibility": 10.0, "windSpeed": 3.0, "description": "#5 lane blocked due to crash on I-10 Eastbound before Eastern Ave.", "street": "I-10 E", "city": "Los Angeles", "state": "CA", "distance": 0.0}, {"id": "A-550027", "lat": 43.05443, "lng": -76.15785, "severity": 3, "startTime": "8/1/2022 7:56", "weatherCondition": "Fair", "temperature": 72.0, "humidity": 71.0, "visibility": 10.0, "windSpeed": 0.0, "description": "Left lane blocked due to crash on I-690 Eastbound at Exit 11 West St.", "street": "I-690 W", "city": "Syracuse", "state": "NY", "distance": 0.0}, {"id": "A-4898887", "lat": 32.22769, "lng": -96.02185, "severity": 4, "startTime": "52:00.0", "weatherCondition": "Fair", "temperature": 91.0, "humidity": 46.0, "visibility": 10.0, "windSpeed": 0.0, "description": "Incident on FM-3054 NB near TX-198 Road closed. Take alternate route.", "street": "Cherokee Ln", "city": "Malakoff", "state": "TX", "distance": 0.067}, {"id": "A-694935", "lat": 32.70285, "lng": -96.27659, "severity": 3, "startTime": "2/27/2022 19:06", "weatherCondition": "Fair", "temperature": 50.0, "humidity": 33.0, "visibility": 10.0, "windSpeed": 3.0, "description": "Lane blocked due to crash on I-20 Westbound at TX-34.", "street": "E Interstate 20", "city": "Terrell", "state": "TX", "distance": 0.0}, {"id": "A-5391756", "lat": 38.56643, "lng": -122.56364, "severity": 4, "startTime": "34:30.0", "weatherCondition": "Fair", "temperature": 66.0, "humidity": 50.0, "visibility": 10.0, "windSpeed": 0.0, "description": "CA-128 - CA-29 is closed from CA-29/Lincoln Ave/Kortum Canyon Rd (CA-128) to Dunaweal Ln/Scott Way (CA-128) due to accident.", "street": "Diamond Mountain Rd", "city": "Calistoga", "state": "CA", "distance": 0.319}, {"id": "A-4771432", "lat": 32.12307, "lng": -103.21527, "severity": 4, "startTime": "10:00.0", "weatherCondition": "Fair", "temperature": 70.0, "humidity": 51.0, "visibility": 10.0, "windSpeed": 7.0, "description": "Incident on NM-128 WB near CONTINENTAL ST Road closed. Take alternate route.", "street": "State Highway 128", "city": "Jal", "state": "NM", "distance": 0.214}, {"id": "A-4489548", "lat": 25.73496, "lng": -80.3192, "severity": 2, "startTime": "1/12/2022 9:35", "weatherCondition": "Cloudy", "temperature": 72.0, "humidity": 68.0, "visibility": 10.0, "windSpeed": 13.0, "description": "Slow traffic on FL-976 from Palmetto Expy S to Palmetto Expy N due to accident.", "street": "Palmetto Expy S", "city": "Miami", "state": "FL", "distance": 0.155}, {"id": "A-681171", "lat": 41.80895, "lng": -87.63189, "severity": 3, "startTime": "3/11/2022 3:53", "weatherCondition": "Light Snow", "temperature": 24.0, "humidity": 77.0, "visibility": 2.0, "windSpeed": 9.0, "description": "Lane blocked due to crash on I-90 Dan Ryan Expy Eastbound at W 47th St.", "street": "I-90 Express Lane", "city": "Chicago", "state": "IL", "distance": 0.0}, {"id": "A-5080424", "lat": 35.22441, "lng": -80.86597, "severity": 4, "startTime": "39:00.0", "weatherCondition": "Partly Cloudy", "temperature": 78.0, "humidity": 84.0, "visibility": 10.0, "windSpeed": 3.0, "description": "The ramp is closed to I-77 North.", "street": "W John Belk Fwy", "city": "Charlotte", "state": "NC", "distance": 0.027000000000000003}, {"id": "A-4922245", "lat": 34.56259, "lng": -80.41001, "severity": 2, "startTime": "51:17.0", "weatherCondition": "Fair", "temperature": 82.0, "humidity": 48.0, "visibility": 10.0, "windSpeed": 5.0, "description": "Incident on JONES RD near SC-346 Drive with caution.", "street": "Buck St", "city": "Kershaw", "state": "SC", "distance": 0.35600000000000004}, {"id": "A-661896", "lat": 47.60944, "lng": -122.33179, "severity": 3, "startTime": "4/4/2022 1:27", "weatherCondition": "Haze", "temperature": 47.0, "humidity": null, "visibility": 6.0, "windSpeed": 18.0, "description": "Entry ramp to I-5 Northbound from University St Eastbound restrictions on entry ramp due to crash.", "street": "University St", "city": "Seattle", "state": "WA", "distance": 0.15000000596046448}, {"id": "A-4599010", "lat": 33.80667, "lng": -118.08133, "severity": 2, "startTime": "11:00.0", "weatherCondition": "Partly Cloudy", "temperature": 57.0, "humidity": 36.0, "visibility": 10.0, "windSpeed": 16.0, "description": "Accident on Katella Ave/Willow St (I-605) from Carson St (I-605) to San Gabriel River Fwy N - I-605 N.", "street": "I-605 N", "city": "Los Alamitos", "state": "CA", "distance": 1.026}, {"id": "A-519507", "lat": 34.86043, "lng": -82.27052, "severity": 1, "startTime": "9/1/2022 14:05", "weatherCondition": "Fair", "temperature": 87.0, "humidity": 44.0, "visibility": 10.0, "windSpeed": 8.0, "description": "Crash on Pelham Rd at Milestone Way.", "street": "Pelham Rd", "city": "Greenville", "state": "SC", "distance": 0.0}, {"id": "A-5090410", "lat": 35.58419, "lng": -89.09705, "severity": 4, "startTime": "3/22/2022 17:20", "weatherCondition": "Light Rain", "temperature": 53.0, "humidity": 100.0, "visibility": 4.0, "windSpeed": 17.0, "description": "Incident on I-40 WB near MM 64 Road closed. Take alternate route.", "street": "I-40", "city": "Brownsville", "state": "TN", "distance": 5.386}, {"id": "A-550534", "lat": 34.1927, "lng": -118.32851, "severity": 3, "startTime": "7/31/2022 2:10", "weatherCondition": "Fair", "temperature": 73.0, "humidity": 66.0, "visibility": 10.0, "windSpeed": 5.0, "description": "Lane blocked due to crash on I-5 Southbound at Exit 147B Empire Ave.", "street": "I-5", "city": "Burbank", "state": "CA", "distance": 0.0}, {"id": "A-578009", "lat": 37.48141, "lng": -77.47581, "severity": 1, "startTime": "7/1/2022 7:40", "weatherCondition": "Fair", "temperature": 73.0, "humidity": 100.0, "visibility": 10.0, "windSpeed": 5.0, "description": "Crash on Warwick Rd both ways at Dorset Rd.", "street": "Warwick Rd", "city": "Richmond", "state": "VA", "distance": 0.0}, {"id": "A-4812406", "lat": 36.15426, "lng": -86.75808, "severity": 4, "startTime": "3/2/2022 3:24", "weatherCondition": "Fair", "temperature": 54.0, "humidity": 38.0, "visibility": 10.0, "windSpeed": 5.0, "description": "Incident on I-40 WB near MM 211 Road closed. Take alternate route.", "street": "I-24 W", "city": "Nashville", "state": "TN", "distance": 0.17600000000000002}, {"id": "A-609415", "lat": 39.68272, "lng": -75.55021, "severity": 1, "startTime": "5/27/2022 7:01", "weatherCondition": "Cloudy", "temperature": 67.0, "humidity": 97.0, "visibility": 5.0, "windSpeed": 8.0, "description": "Crash on Martin Dr at Daniel Ln.", "street": "Daniel Ln", "city": "New Castle", "state": "DE", "distance": 0.0}, {"id": "A-539021", "lat": 34.37917, "lng": -118.56692, "severity": 1, "startTime": "8/12/2022 3:44", "weatherCondition": "Fair", "temperature": 72.0, "humidity": 59.0, "visibility": 10.0, "windSpeed": 0.0, "description": "Crash and surface water on Pico Canyon Rd at Lyons Ave.", "street": "Pico Canyon Rd", "city": "Stevenson Ranch", "state": "CA", "distance": 0.0}, {"id": "A-4766884", "lat": 40.16933, "lng": -74.89938, "severity": 4, "startTime": "6/26/2022 23:27", "weatherCondition": "Mostly Cloudy", "temperature": 73.0, "humidity": 66.0, "visibility": 10.0, "windSpeed": 10.0, "description": "Crash on I-295 westbound between Exit 3: PA 413/US 1 BUSINESS - LEVITTOWN/PENDEL and (End of I - 295). All lanes closed.", "street": "I-295 W", "city": "Langhorne", "state": "PA", "distance": 2.893}, {"id": "A-677797", "lat": 41.69181, "lng": -93.24682, "severity": 3, "startTime": "3/14/2022 14:47", "weatherCondition": "Fair", "temperature": 59.0, "humidity": 39.0, "visibility": 10.0, "windSpeed": 3.0, "description": "Right hand shoulder blocked due to crash on I-80 Eastbound between Exit 149 CR-S27 and Exit 155 IA-117.", "street": "Highway 117 S", "city": "Colfax", "state": "IA", "distance": 10.210000038146973}, {"id": "A-671702", "lat": 40.72915, "lng": -74.53934, "severity": 3, "startTime": "3/18/2022 19:48", "weatherCondition": "Fair", "temperature": 61.0, "humidity": 60.0, "visibility": 10.0, "windSpeed": 0.0, "description": "Left lane blocked due to crash on I-287 Northbound at Exits 30 / Maple Ave.", "street": "N Maple Ave", "city": "Basking Ridge", "state": "NJ", "distance": 0.0}, {"id": "A-4276245", "lat": 41.52166, "lng": -88.19333, "severity": 2, "startTime": "9/1/2022 15:15", "weatherCondition": "Partly Cloudy", "temperature": 85.0, "humidity": 53.0, "visibility": 10.0, "windSpeed": 9.0, "description": "Stationary traffic on US-52 W - US-52 E from I-55 (W Jefferson St/US-52) to IL-59/Brook Forest Ave/Cottage St (Jefferson St/US-52) due to accident.", "street": "Channahon St", "city": "Shorewood", "state": "IL", "distance": 0.272}, {"id": "A-545382", "lat": 34.01082, "lng": -117.82306, "severity": 1, "startTime": "8/5/2022 3:30", "weatherCondition": "Partly Cloudy", "temperature": 70.0, "humidity": 73.0, "visibility": 10.0, "windSpeed": 0.0, "description": "Crash on CA-57 at Exit 24B Grand Ave.", "street": "CA-57 S", "city": "Diamond Bar", "state": "CA", "distance": 0.0}, {"id": "A-5199581", "lat": 41.23027, "lng": -73.0729, "severity": 2, "startTime": "48:00.0", "weatherCondition": "Cloudy", "temperature": 50.0, "humidity": 80.0, "visibility": 10.0, "windSpeed": 17.0, "description": "ConnDOT: I-95 Northbound is congested between Exits 36 and 38 (0.8 miles) because of Crash (2 Vehicle) between Exits 37 and 38. The right lane is closed. Reported Friday December 23 at 12:51 pm.", "street": "I-95 N", "city": "Milford", "state": "CT", "distance": 0.919}, {"id": "A-516170", "lat": 33.356, "lng": -86.65113, "severity": 1, "startTime": "9/5/2022 21:14", "weatherCondition": "Mostly Cloudy", "temperature": 76.0, "humidity": 91.0, "visibility": 10.0, "windSpeed": 0.0, "description": "Crash on US-280 both ways at CR-43.", "street": "Highway 280 E", "city": "Sterrett", "state": "AL", "distance": 0.0}, {"id": "A-4944208", "lat": 43.02863, "lng": -87.96925, "severity": 2, "startTime": "10:06.0", "weatherCondition": "Rain", "temperature": 72.0, "humidity": 83.0, "visibility": 7.0, "windSpeed": 14.0, "description": "Crash on WIS 175 South 0.5 miles beyond I-94 East. The right lane is blocked.", "street": "State Highway 341", "city": "Milwaukee", "state": "WI", "distance": 0.13699999999999998}, {"id": "A-608012", "lat": 40.72232, "lng": -111.90468, "severity": 3, "startTime": "5/28/2022 12:38", "weatherCondition": "Light Rain", "temperature": 57.0, "humidity": 72.0, "visibility": 10.0, "windSpeed": 10.0, "description": "Three lanes blocked due to crash on I-15 Southbound at Exit 304 UT-201 .", "street": "I-15", "city": "Salt Lake City", "state": "UT", "distance": 0.0}, {"id": "A-3769084", "lat": 34.0208, "lng": -118.15916, "severity": 2, "startTime": "3/1/2022 15:30", "weatherCondition": "Fair", "temperature": 78.0, "humidity": 13.0, "visibility": 10.0, "windSpeed": null, "description": "Slow traffic on CA-72 from S Vancouver Ave to Hubbard St due to accident.", "street": "Whittier Blvd", "city": "Los Angeles", "state": "CA", "distance": 0.115}, {"id": "A-520049", "lat": 37.40379, "lng": -77.67477, "severity": 1, "startTime": "9/1/2022 4:15", "weatherCondition": "Fair", "temperature": 60.0, "humidity": 100.0, "visibility": 10.0, "windSpeed": 3.0, "description": "Crash on US-360 Hull St Rd both ways at Duckridge Blvd.", "street": "Duckridge Blvd", "city": "Chesterfield", "state": "VA", "distance": 0.0}, {"id": "A-5211813", "lat": 39.71453, "lng": -75.65764, "severity": 4, "startTime": "42:00.0", "weatherCondition": "Cloudy", "temperature": 74.0, "humidity": 40.0, "visibility": 10.0, "windSpeed": 13.0, "description": "Construction on TELEGRAPH RD near SR-7 Road closed. Take alternate route.", "street": "Telegraph Rd", "city": "Wilmington", "state": "DE", "distance": 0.105}, {"id": "A-5119991", "lat": 35.80904, "lng": -83.83973, "severity": 4, "startTime": "5/2/2022 17:33", "weatherCondition": "Cloudy", "temperature": 80.0, "humidity": 34.0, "visibility": 10.0, "windSpeed": 5.0, "description": "Incident on TN-35 SB near A224 GREEN RD LT Road closed. Take alternate route.", "street": "Sevierville Rd", "city": "Maryville", "state": "TN", "distance": 0.032}, {"id": "A-5248268", "lat": 39.8197, "lng": -85.88941, "severity": 4, "startTime": "11/9/2022 16:40", "weatherCondition": "Fair", "temperature": 72.0, "humidity": 25.0, "visibility": 10.0, "windSpeed": 5.0, "description": "I-70 W is closed from IN-9/Exit 104 (I-70) to 600/Exit 96 (I-70) due to accident.", "street": "I-70 W", "city": "Greenfield", "state": "IN", "distance": 0.446}, {"id": "A-5186290", "lat": 27.85193, "lng": -82.67805, "severity": 2, "startTime": "4/5/2022 10:14", "weatherCondition": "Mostly Cloudy", "temperature": 73.0, "humidity": 96.0, "visibility": 6.0, "windSpeed": 14.0, "description": "Incident on GATEWAY CENTRE near GATEWAY CENTRE PKY Drive with caution.", "street": "Gateway Center Pkwy", "city": "Pinellas Park", "state": "FL", "distance": 0.011}, {"id": "A-715127", "lat": 29.46332, "lng": -98.51632, "severity": 3, "startTime": "2/10/2022 8:27", "weatherCondition": "Mostly Cloudy", "temperature": 50.0, "humidity": 52.0, "visibility": 10.0, "windSpeed": 5.0, "description": "Left hand shoulder blocked and left lane blocked due to crash on I-10 Eastbound at Fulton Ave.", "street": "W Interstate 10", "city": "San Antonio", "state": "TX", "distance": 0.0}, {"id": "A-4842894", "lat": 43.01796, "lng": -83.67427, "severity": 2, "startTime": "4/22/2022 13:16", "weatherCondition": "Fair", "temperature": 56.0, "humidity": 47.0, "visibility": 10.0, "windSpeed": 8.0, "description": "Incident on E COURT ST near WOODLAWN PARK DR Drive with caution.", "street": "E Court St", "city": "Flint", "state": "MI", "distance": 0.037000000000000005}, {"id": "A-663320", "lat": 33.90869, "lng": -118.18011, "severity": 3, "startTime": "4/1/2022 21:44", "weatherCondition": "Fair", "temperature": 59.0, "humidity": 81.0, "visibility": 10.0, "windSpeed": 7.0, "description": "Entry ramp to I-710 Northbound from Rosecrans Ave Westbound lane blocked due to crash.", "street": "I-710 N", "city": "Paramount", "state": "CA", "distance": 0.44999998807907104}, {"id": "A-532891", "lat": 32.75876, "lng": -96.99532, "severity": 3, "startTime": "8/19/2022 6:03", "weatherCondition": "Cloudy", "temperature": 75.0, "humidity": 100.0, "visibility": 4.0, "windSpeed": 0.0, "description": "Two lanes blocked due to crash on I-30 Westbound at Exit 33 Belt Line Rd .", "street": "Tom Landry Hwy", "city": "Grand Prairie", "state": "TX", "distance": 0.0}, {"id": "A-607360", "lat": 39.62974, "lng": -75.74767, "severity": 1, "startTime": "5/30/2022 8:30", "weatherCondition": "Fair", "temperature": 75.0, "humidity": 66.0, "visibility": 10.0, "windSpeed": 7.0, "description": "Crash on Winsome Way at Aikens Ct.", "street": "Winsome Way", "city": "Newark", "state": "DE", "distance": 0.0}, {"id": "A-668554", "lat": 30.00553, "lng": -90.29234, "severity": 3, "startTime": "3/22/2022 8:59", "weatherCondition": "Cloudy", "temperature": 74.0, "humidity": 87.0, "visibility": 7.0, "windSpeed": 18.0, "description": "Left lane blocked due to crash on I-10 Eastbound at Exit 220 I-310 Exits 1 1A.", "street": "I-10 E", "city": "Saint Rose", "state": "LA", "distance": 0.0}, {"id": "A-670047", "lat": 42.97365, "lng": -83.71863, "severity": 2, "startTime": "3/21/2022 8:20", "weatherCondition": "Fair", "temperature": 29.0, "humidity": 89.0, "visibility": 10.0, "windSpeed": 3.0, "description": "Crash on Bristol Rd at Holiday Dr.", "street": "W Bristol Rd", "city": "Flint", "state": "MI", "distance": 0.0}, {"id": "A-627256", "lat": 42.99357, "lng": -78.92835, "severity": 3, "startTime": "5/5/2022 15:53", "weatherCondition": "Cloudy", "temperature": 63.0, "humidity": 40.0, "visibility": 10.0, "windSpeed": 10.0, "description": "Right lane blocked due to crash on I-190 Northbound at Exit 17 NY-324 Grand Island Blvd.", "street": "I-190 S", "city": "Tonawanda", "state": "NY", "distance": 0.0}, {"id": "A-4050951", "lat": 34.19473, "lng": -91.92153, "severity": 4, "startTime": "10/4/2022 11:11", "weatherCondition": "Fair", "temperature": 73.0, "humidity": 48.0, "visibility": 10.0, "windSpeed": 5.0, "description": "Incident on US-65 NB near US-65 Road closed. Take alternate route.", "street": "Highway 65 S", "city": "Pine Bluff", "state": "AR", "distance": 0.048}, {"id": "A-578671", "lat": 33.59713, "lng": -81.02619, "severity": 1, "startTime": "6/30/2022 5:17", "weatherCondition": "Fog", "temperature": 73.0, "humidity": 100.0, "visibility": 0.75, "windSpeed": 0.0, "description": "Crash on Woodhaven St at Pigeonsgate Ln.", "street": "Pigeonsgate Ln", "city": "North", "state": "SC", "distance": 0.0}, {"id": "A-556112", "lat": 39.16969, "lng": -84.42123, "severity": 3, "startTime": "7/25/2022 17:42", "weatherCondition": "Fair", "temperature": 80.0, "humidity": 58.0, "visibility": 10.0, "windSpeed": 6.0, "description": "Left lane blocked due to crash on I-71 Northbound at Ridge Ave.", "street": "Highland Ave", "city": "Cincinnati", "state": "OH", "distance": 0.0}, {"id": "A-5398680", "lat": 39.43617, "lng": -104.76034, "severity": 4, "startTime": "4/21/2022 21:29", "weatherCondition": "Fair", "temperature": 64.0, "humidity": 33.0, "visibility": 10.0, "windSpeed": 17.0, "description": "Incident on CO-83 SB near MP 54 Road closed. Take alternate route.", "street": "Fonder Dr", "city": "Parker", "state": "CO", "distance": 0.072}, {"id": "A-614864", "lat": 40.02535, "lng": -75.22888, "severity": 3, "startTime": "5/22/2022 8:28", "weatherCondition": "Cloudy", "temperature": 74.0, "humidity": 87.0, "visibility": 10.0, "windSpeed": 0.0, "description": "Shoulder closed due to crash on I-76 Westbound at Exit 338 Belmont Ave.", "street": "Belmont Ave", "city": "Bala Cynwyd", "state": "PA", "distance": 0.0}, {"id": "A-5250707", "lat": 40.21544, "lng": -76.07001, "severity": 4, "startTime": "12/23/2022 21:42", "weatherCondition": "Mostly Cloudy / Windy", "temperature": 6.0, "humidity": 50.0, "visibility": 10.0, "windSpeed": 23.0, "description": "Incident on I-76 WB near I-176 Road closed. Take alternate route.", "street": "Pennsylvania Tpke", "city": "Denver", "state": "PA", "distance": 0.3}, {"id": "A-692340", "lat": 37.69812, "lng": -121.93909, "severity": 2, "startTime": "3/1/2022 20:22", "weatherCondition": "Fair", "temperature": 59.0, "humidity": 64.0, "visibility": 10.0, "windSpeed": 0.0, "description": "Crash on I-580 Eastbound at Exit 44A San Ramon Rd.", "street": "I-580", "city": "Pleasanton", "state": "CA", "distance": 0.0}, {"id": "A-567881", "lat": 27.44049, "lng": -82.5959, "severity": 1, "startTime": "7/13/2022 8:47", "weatherCondition": "Fair", "temperature": 83.0, "humidity": 79.0, "visibility": 10.0, "windSpeed": 6.0, "description": "Right lane blocked due to crash on 34th St at 57th Ave.", "street": "57th Ave W", "city": "Bradenton", "state": "FL", "distance": 0.0}, {"id": "A-5305356", "lat": 42.87401, "lng": -78.86005, "severity": 2, "startTime": "29:12.0", "weatherCondition": "Fair", "temperature": 81.0, "humidity": 72.0, "visibility": 10.0, "windSpeed": 12.0, "description": "Incident on I-190 SB near I-190 Drive with caution.", "street": "I-190 S", "city": "Buffalo", "state": "NY", "distance": 0.067}, {"id": "A-543487", "lat": 30.43284, "lng": -91.05739, "severity": 1, "startTime": "8/8/2022 7:28", "weatherCondition": "Fair", "temperature": 77.0, "humidity": 94.0, "visibility": 10.0, "windSpeed": 3.0, "description": "Crash on Harrell's Ferry Rd at Sherwood Forest Blvd.", "street": "S Sherwood Forest Blvd", "city": "Baton Rouge", "state": "LA", "distance": 0.0}, {"id": "A-711289", "lat": 40.11274, "lng": -87.61226, "severity": 3, "startTime": "2/14/2022 8:25", "weatherCondition": "Cloudy", "temperature": 13.0, "humidity": 75.0, "visibility": 10.0, "windSpeed": 6.0, "description": "Lane blocked due to crash on I-74 Westbound between Exit 220 Lynch Spur and Exit 216 Bowman Ave.", "street": "I-74 E", "city": "Danville", "state": "IL", "distance": 6.440000057220459}, {"id": "A-591322", "lat": 33.86484, "lng": -84.43954, "severity": 3, "startTime": "6/16/2022 16:55", "weatherCondition": "Fair", "temperature": 95.0, "humidity": 46.0, "visibility": 10.0, "windSpeed": 0.0, "description": "One center right lane blocked due to crash on I-75 Northbound at Exit 256 Mt Paran Rd.", "street": "I-75", "city": "Atlanta", "state": "GA", "distance": 0.0}, {"id": "A-623901", "lat": 27.93777, "lng": -82.21958, "severity": 1, "startTime": "5/13/2022 8:15", "weatherCondition": "Partly Cloudy", "temperature": 68.0, "humidity": 88.0, "visibility": 10.0, "windSpeed": 7.0, "description": "Crash on Dover Rd at FL-60.", "street": "N Dover Rd", "city": "Dover", "state": "FL", "distance": 0.0}, {"id": "A-633211", "lat": 34.9015, "lng": -82.13694, "severity": 1, "startTime": "4/29/2022 17:00", "weatherCondition": "Fair", "temperature": 77.0, "humidity": 30.0, "visibility": 10.0, "windSpeed": 12.0, "description": "Crash on Danzler Rd at Victor Hill Rd.", "street": "Victor Hill Rd", "city": "Duncan", "state": "SC", "distance": 0.0}, {"id": "A-519859", "lat": 27.90198, "lng": -82.63689, "severity": 3, "startTime": "9/1/2022 8:32", "weatherCondition": "Fair", "temperature": 82.0, "humidity": 88.0, "visibility": 10.0, "windSpeed": 5.0, "description": "Right lane blocked due to crash on I-275 Northbound after Exit 32 FL-687 4th St.", "street": "I-275 N", "city": "Saint Petersburg", "state": "FL", "distance": 0.0}, {"id": "A-5346330", "lat": 39.01816, "lng": -76.91445, "severity": 2, "startTime": "11/3/2022 2:41", "weatherCondition": "Fair", "temperature": 47.0, "humidity": 97.0, "visibility": 7.0, "windSpeed": 0.0, "description": "Incident on I-95 WB near RHODE ISLAND AVE Expect long delays.", "street": "Capital Beltway N", "city": "College Park", "state": "MD", "distance": 0.306}, {"id": "A-612097", "lat": 34.08155, "lng": -80.94799, "severity": 1, "startTime": "5/25/2022 7:19", "weatherCondition": "Cloudy", "temperature": 65.0, "humidity": 81.0, "visibility": 10.0, "windSpeed": 3.0, "description": "Crash on Leila Ln at Springwoods Lake Dr.", "street": "Leila Ln", "city": "Columbia", "state": "SC", "distance": 0.0}, {"id": "A-607337", "lat": 30.51377, "lng": -98.04138, "severity": 1, "startTime": "5/30/2022 4:49", "weatherCondition": "Cloudy", "temperature": 76.0, "humidity": 73.0, "visibility": 10.0, "windSpeed": 10.0, "description": "Crash on FM-1431 at Cow Creek Rd.", "street": "FM 1431", "city": "Marble Falls", "state": "TX", "distance": 0.0}, {"id": "A-5420099", "lat": 40.78257, "lng": -73.09836, "severity": 2, "startTime": "7/6/2022 8:30", "weatherCondition": "Mostly Cloudy", "temperature": 82.0, "humidity": 69.0, "visibility": 10.0, "windSpeed": 14.0, "description": "Stationary traffic on NY-454 from CR-112/Johnson Ave (NY-454) to CR-93/Lakeland Ave (NY-454) due to accident.", "street": "Veterans Memorial Hwy", "city": "Ronkonkoma", "state": "NY", "distance": 0.209}, {"id": "A-653903", "lat": 46.38957, "lng": -122.90197, "severity": 3, "startTime": "4/11/2022 13:04", "weatherCondition": "Mostly Cloudy", "temperature": 45.0, "humidity": 87.0, "visibility": 10.0, "windSpeed": 7.0, "description": "Left lane blocked due to crash on I-5 Southbound near Exit 57 Jackson Hwy.", "street": "I-5 N", "city": "Toledo", "state": "WA", "distance": 0.0}, {"id": "A-4284663", "lat": 40.53583, "lng": -79.8418, "severity": 2, "startTime": "54:00.0", "weatherCondition": "Light Rain", "temperature": 68.0, "humidity": 70.0, "visibility": 7.0, "windSpeed": 8.0, "description": "Stationary traffic from Werner Camp Rd (Freeport Rd) to Hulton Bridge (Freeport Rd) due to accident.", "street": "Freeport Rd", "city": "Pittsburgh", "state": "PA", "distance": 0.251}, {"id": "A-5400480", "lat": 39.38851, "lng": -76.72694, "severity": 4, "startTime": "26:11.0", "weatherCondition": "", "temperature": null, "humidity": null, "visibility": null, "windSpeed": null, "description": "Incident on I-695 EB near EXIT 21 Road closed. Take alternate route.", "street": "I-695", "city": "Pikesville", "state": "MD", "distance": 1.088}, {"id": "A-5153405", "lat": 29.62953, "lng": -95.42034, "severity": 2, "startTime": "52:38.0", "weatherCondition": "Mostly Cloudy", "temperature": 76.0, "humidity": 82.0, "visibility": 10.0, "windSpeed": 8.0, "description": "Incident on UMIAK DR near COHO LN Drive with caution.", "street": "Coho Ln", "city": "Houston", "state": "TX", "distance": 0.267}, {"id": "A-519652", "lat": 34.65294, "lng": -79.20351, "severity": 1, "startTime": "9/1/2022 10:36", "weatherCondition": "Fair", "temperature": 84.0, "humidity": 47.0, "visibility": 10.0, "windSpeed": 6.0, "description": "Crash on Three Bridges Rd at US-74-ALT.", "street": "Three Bridges Rd", "city": "Rowland", "state": "NC", "distance": 0.0}, {"id": "A-712716", "lat": 38.94063, "lng": -94.58252, "severity": 3, "startTime": "2/11/2022 22:55", "weatherCondition": "Fair / Windy", "temperature": 24.0, "humidity": 51.0, "visibility": 10.0, "windSpeed": 21.0, "description": "Three lanes blocked due to crash on I-435 Westbound at Exit 74 Holmes Rd.", "street": "I-435 W", "city": "Kansas City", "state": "MO", "distance": 0.0}, {"id": "A-552491", "lat": 38.70643, "lng": -120.83075, "severity": 1, "startTime": "7/28/2022 15:14", "weatherCondition": "Fair", "temperature": 93.0, "humidity": 20.0, "visibility": 10.0, "windSpeed": 8.0, "description": "Crash on Forni Rd Westbound at Missouri Flat Rd.", "street": "Forni Rd", "city": "Placerville", "state": "CA", "distance": 0.0}, {"id": "A-627914", "lat": 30.43865, "lng": -91.08579, "severity": 1, "startTime": "5/5/2022 6:47", "weatherCondition": "Fair", "temperature": 67.0, "humidity": 100.0, "visibility": 6.0, "windSpeed": 3.0, "description": "Crash on US-61 Airline Hwy at Lindale Ave.", "street": "Airline Hwy", "city": "Baton Rouge", "state": "LA", "distance": 0.0}, {"id": "A-639877", "lat": 38.23507, "lng": -85.61435, "severity": 3, "startTime": "4/23/2022 20:16", "weatherCondition": "Fair", "temperature": 80.0, "humidity": 38.0, "visibility": 10.0, "windSpeed": 12.0, "description": "One lane blocked due to crash on I-64 Westbound at Exit 15 KY-1747 Hurstbourne Pkwy.", "street": "I-64", "city": "Louisville", "state": "KY", "distance": 0.0}, {"id": "A-4131810", "lat": 39.26609, "lng": -76.59718, "severity": 2, "startTime": "8/18/2022 15:56", "weatherCondition": "", "temperature": 88.0, "humidity": 31.0, "visibility": null, "windSpeed": null, "description": "Incident on I-95 NB near EXIT 55 Drive with caution.", "street": "I-95", "city": "Baltimore", "state": "MD", "distance": 1.741}, {"id": "A-564095", "lat": 33.22684, "lng": -97.17284, "severity": 3, "startTime": "7/17/2022 13:43", "weatherCondition": "Fair", "temperature": 101.0, "humidity": 30.0, "visibility": 10.0, "windSpeed": 8.0, "description": "Lane blocked due to crash on I-35 Northbound at I-35 Exit 469 / US-380.", "street": "I-35 N", "city": "Denton", "state": "TX", "distance": 0.0}, {"id": "A-3836585", "lat": 39.97428, "lng": -86.38715, "severity": 4, "startTime": "6/20/2022 15:45", "weatherCondition": "Fair", "temperature": 87.0, "humidity": 24.0, "visibility": 10.0, "windSpeed": 12.0, "description": "Incident on I-65 SB near CR-650 Road closed. Take alternate route.", "street": "I-65 S", "city": "Whitestown", "state": "IN", "distance": 0.6629999999999999}, {"id": "A-4611322", "lat": 35.39547, "lng": -119.04479, "severity": 2, "startTime": "2/7/2022 15:52", "weatherCondition": "Fair", "temperature": 73.0, "humidity": 24.0, "visibility": 9.0, "windSpeed": 10.0, "description": "Slow traffic on CA-99 S - CA-58 E from Airport Dr (CA-99) to CA-58 (CA-99) due to accident.", "street": "CA-99 S", "city": "Bakersfield", "state": "CA", "distance": 2.477}, {"id": "A-4621600", "lat": 32.77916, "lng": -117.06241, "severity": 2, "startTime": "4/9/2022 8:55", "weatherCondition": "Fair", "temperature": 69.0, "humidity": 58.0, "visibility": 10.0, "windSpeed": 8.0, "description": "Incident on I-8 WB near COLLEGE Drive with caution.", "street": "I-8 W", "city": "San Diego", "state": "CA", "distance": 1.249}, {"id": "A-4795078", "lat": 36.1891, "lng": -80.21355, "severity": 4, "startTime": "7/5/2022 11:53", "weatherCondition": "Mostly Cloudy", "temperature": 86.0, "humidity": 63.0, "visibility": 10.0, "windSpeed": 6.0, "description": "NC 66 is closed near Burdette Rd.", "street": "Old Hollow Rd", "city": "Winston-Salem", "state": "NC", "distance": 0.119}, {"id": "A-522034", "lat": 41.42491, "lng": -81.54498, "severity": 3, "startTime": "8/30/2022 16:09", "weatherCondition": "Fair", "temperature": 78.0, "humidity": 60.0, "visibility": 10.0, "windSpeed": 17.0, "description": "Left lane blocked due to crash on I-480 Westbound after Exit 25Abc OH-43.", "street": "I-480", "city": "Cleveland", "state": "OH", "distance": 0.0}, {"id": "A-4838048", "lat": 37.84972, "lng": -85.71426, "severity": 4, "startTime": "7/21/2022 10:19", "weatherCondition": "Fair", "temperature": 81.0, "humidity": 73.0, "visibility": 10.0, "windSpeed": 3.0, "description": "Incident on I-65 SB near MM 106 Road closed. Take alternate route.", "street": "I-65 S", "city": "Lebanon Junction", "state": "KY", "distance": 0.3670000000000001}, {"id": "A-593926", "lat": 35.18951, "lng": -89.80488, "severity": 3, "startTime": "6/14/2022 12:11", "weatherCondition": "Fair", "temperature": 91.0, "humidity": 52.0, "visibility": 8.0, "windSpeed": 14.0, "description": "Right lane blocked and right hand shoulder blocked due to multi-vehicle crash on I-40 Westbound at Exits 16 16A 16B TN-177 Germantown Pkwy.", "street": "I-40", "city": "Memphis", "state": "TN", "distance": 0.0}, {"id": "A-546999", "lat": 29.78479, "lng": -95.59088, "severity": 3, "startTime": "8/3/2022 18:23", "weatherCondition": "Fair", "temperature": 94.0, "humidity": 44.0, "visibility": 10.0, "windSpeed": 17.0, "description": "4 center lane blocked due to crash on I-10 I-10 Westbound at Kirkwood Rd.", "street": "Katy Tlwy", "city": "Houston", "state": "TX", "distance": 0.0}, {"id": "A-580309", "lat": 30.16348, "lng": -81.55347, "severity": 1, "startTime": "6/29/2022 7:28", "weatherCondition": "Mostly Cloudy", "temperature": 80.0, "humidity": 85.0, "visibility": 10.0, "windSpeed": 5.0, "description": "Crash on I-95 Southbound before Exit 337 / I-295 Exit 61A.", "street": "I-95", "city": "Jacksonville", "state": "FL", "distance": 0.0}, {"id": "A-600843", "lat": 37.50019, "lng": -79.74857, "severity": 4, "startTime": "6/7/2022 15:30", "weatherCondition": "Mostly Cloudy", "temperature": 78.0, "humidity": 62.0, "visibility": 10.0, "windSpeed": 6.0, "description": "Main roadway closed due to crash on I-81 Southbound from Exit 168 US-11 Arcadia Rd to Exit 162 US-11. Traffic getting by on the shoulder.", "street": "I-81 N", "city": "Buchanan", "state": "VA", "distance": 10.329999923706056}, {"id": "A-621679", "lat": 35.76391, "lng": -78.84475, "severity": 1, "startTime": "5/16/2022 7:41", "weatherCondition": "Mostly Cloudy", "temperature": 71.0, "humidity": 84.0, "visibility": 10.0, "windSpeed": 14.0, "description": "Crash on Farmpond Rd at Gravel Brook Ct.", "street": "Gravel Brook Ct", "city": "Apex", "state": "NC", "distance": 0.0}, {"id": "A-549248", "lat": 34.868, "lng": -82.32842, "severity": 1, "startTime": "8/1/2022 18:11", "weatherCondition": "Light Rain", "temperature": 77.0, "humidity": 84.0, "visibility": 10.0, "windSpeed": 6.0, "description": "Crash on Howell Cir at Spring Forest Rd.", "street": "Howell Cir", "city": "Greenville", "state": "SC", "distance": 0.0}, {"id": "A-576995", "lat": 33.93002, "lng": -118.28056, "severity": 3, "startTime": "7/2/2022 5:18", "weatherCondition": "Fair", "temperature": 65.0, "humidity": 81.0, "visibility": 10.0, "windSpeed": 0.0, "description": "Middle lane blocked due to crash on I-105 Eastbound at I-110 Exit 14B.", "street": "I-110 BUS Ln", "city": "Los Angeles", "state": "CA", "distance": 0.0}, {"id": "A-3955221", "lat": 33.83498, "lng": -84.20479, "severity": 2, "startTime": "5/25/2022 18:26", "weatherCondition": "Light Rain", "temperature": 70.0, "humidity": 90.0, "visibility": 5.0, "windSpeed": 0.0, "description": "Incident on US-78 WB near MOUNTAIN INDUSTRIAL BOULEVARD Drive with caution.", "street": "Stone Mountain Pkwy", "city": "Stone Mountain", "state": "GA", "distance": 0.094}, {"id": "A-629882", "lat": 33.85226, "lng": -84.24655, "severity": 3, "startTime": "5/3/2022 18:18", "weatherCondition": "Fair", "temperature": 82.0, "humidity": 47.0, "visibility": 10.0, "windSpeed": 10.0, "description": "Four lanes blocked due to crash on I-285 Southbound before Exit 36 Northlake Pkwy.", "street": "I-285", "city": "Tucker", "state": "GA", "distance": 0.0}, {"id": "A-5038790", "lat": 38.39223, "lng": -75.30803, "severity": 4, "startTime": "1/29/2022 7:05", "weatherCondition": "Light Snow", "temperature": 27.0, "humidity": 92.0, "visibility": 0.75, "windSpeed": 18.0, "description": "MD 610 PRIOR TO US 50", "street": "Whaleyville Rd", "city": "Whaleyville", "state": "MD", "distance": 0.439}, {"id": "A-562277", "lat": 35.48238, "lng": -97.52962, "severity": 1, "startTime": "7/19/2022 7:39", "weatherCondition": "Fair", "temperature": 80.0, "humidity": 52.0, "visibility": 10.0, "windSpeed": 7.0, "description": "Crash on Classen Blvd at 13th St.", "street": "N Classen Blvd", "city": "Oklahoma City", "state": "OK", "distance": 0.0}, {"id": "A-594202", "lat": 35.78865, "lng": -78.64555, "severity": 1, "startTime": "6/14/2022 6:32", "weatherCondition": "Mostly Cloudy", "temperature": 80.0, "humidity": 71.0, "visibility": 10.0, "windSpeed": 3.0, "description": "Crash on Peace St at West St.", "street": "W Peace St", "city": "Raleigh", "state": "NC", "distance": 0.0}, {"id": "A-4661558", "lat": 41.35268, "lng": -73.66295, "severity": 4, "startTime": "28:00.0", "weatherCondition": "", "temperature": null, "humidity": null, "visibility": null, "windSpeed": null, "description": "Incident on RT-22 WB near DEANS CORNER RD Road closed. Take alternate route.", "street": "US-202", "city": "Croton Falls", "state": "NY", "distance": 0.16899999999999998}, {"id": "A-4162776", "lat": 28.16425, "lng": -81.44018, "severity": 4, "startTime": "4/5/2022 10:28", "weatherCondition": "Cloudy", "temperature": 79.0, "humidity": 78.0, "visibility": 10.0, "windSpeed": 13.0, "description": "Incident on PLEASANT HILL RD SB near LIBERTY HIGH SCHOOL Road closed. Take alternate route.", "street": "Pleasant Hill Rd", "city": "Kissimmee", "state": "FL", "distance": 0.042}, {"id": "A-5275560", "lat": 42.27548, "lng": -83.20397, "severity": 2, "startTime": "1/23/2022 14:46", "weatherCondition": "Partly Cloudy", "temperature": 22.0, "humidity": 58.0, "visibility": 10.0, "windSpeed": 15.0, "description": "Incident on I-94 EB near MI-39 Expect long delays.", "street": "I-94", "city": "Allen Park", "state": "MI", "distance": 0.735}, {"id": "A-634404", "lat": 35.78072, "lng": -78.67552, "severity": 1, "startTime": "4/28/2022 19:37", "weatherCondition": "Fair", "temperature": 65.0, "humidity": 31.0, "visibility": 10.0, "windSpeed": 5.0, "description": "Crash on Western Blvd both ways at Avent Ferry Rd.", "street": "Western Blvd", "city": "Raleigh", "state": "NC", "distance": 0.0}, {"id": "A-5138146", "lat": 28.71045, "lng": -81.2381, "severity": 2, "startTime": "53:00.0", "weatherCondition": "T-Storm", "temperature": 84.0, "humidity": 79.0, "visibility": 10.0, "windSpeed": 8.0, "description": "Incident on SR-417 NB near MM 46 Right lane blocked. Expect delays.", "street": "FL-417 N", "city": "Winter Springs", "state": "FL", "distance": 2.238}, {"id": "A-625508", "lat": 33.68891, "lng": -117.91818, "severity": 3, "startTime": "5/11/2022 19:52", "weatherCondition": "Fair", "temperature": 65.0, "humidity": 31.0, "visibility": 10.0, "windSpeed": 6.0, "description": "Lane blocked due to crash on I-405 Northbound at Fairview Rd.", "street": "I-405 N", "city": "Costa Mesa", "state": "CA", "distance": 0.0}, {"id": "A-4564337", "lat": 34.05569, "lng": -118.17991, "severity": 2, "startTime": "01:00.0", "weatherCondition": "Fair", "temperature": 60.0, "humidity": 49.0, "visibility": 10.0, "windSpeed": 0.0, "description": "Accident from I-10/San Bernardino Fwy/N Bonnie Beach Pl (City Terrace Dr) to N Eastern Ave (City Terrace Dr).", "street": "City Terrace Dr", "city": "Los Angeles", "state": "CA", "distance": 0.058}, {"id": "A-3747830", "lat": 35.70609, "lng": -112.13213, "severity": 4, "startTime": "11/3/2022 14:07", "weatherCondition": "Light Snow", "temperature": 29.0, "humidity": 82.0, "visibility": 2.0, "windSpeed": 12.0, "description": "Incident on AZ-64 NB near E DIRTY FIRST ST Road closed. Take alternate route.", "street": "N State Route 64", "city": "Williams", "state": "AZ", "distance": 0.627}, {"id": "A-619439", "lat": 39.72869, "lng": -84.20745, "severity": 2, "startTime": "5/17/2022 17:35", "weatherCondition": "Fair", "temperature": 77.0, "humidity": 31.0, "visibility": 10.0, "windSpeed": 8.0, "description": "Left lane blocked due to crash on I-75 Southbound at Exit 51 Edwin C Moses Blvd.", "street": "I-75", "city": "Dayton", "state": "OH", "distance": 0.0}, {"id": "A-529733", "lat": 33.45661, "lng": -86.95034, "severity": 2, "startTime": "8/23/2022 6:08", "weatherCondition": "Cloudy", "temperature": 73.0, "humidity": 96.0, "visibility": 10.0, "windSpeed": 3.0, "description": "Multi-vehicle crash on I-20 Westbound at Exit 115 CR-56 Allison Bonnett Memorial Dr.", "street": "I-20", "city": "Birmingham", "state": "AL", "distance": 0.0}, {"id": "A-546903", "lat": 38.26406, "lng": -122.80798, "severity": 1, "startTime": "8/3/2022 16:03", "weatherCondition": "Fair", "temperature": 79.0, "humidity": 44.0, "visibility": 10.0, "windSpeed": 12.0, "description": "Crash on Fallon Rd at Moller Rd.", "street": "Fallon Rd", "city": "Petaluma", "state": "CA", "distance": 0.0}, {"id": "A-593813", "lat": 34.91955, "lng": -82.36038, "severity": 1, "startTime": "6/14/2022 16:41", "weatherCondition": "Fair", "temperature": 95.0, "humidity": 43.0, "visibility": 10.0, "windSpeed": 7.0, "description": "Crash on Mountain Creek Church Rd at Piedmont Park Rd Ext.", "street": "Piedmont Park Road Ext", "city": "Greenville", "state": "SC", "distance": 0.0}, {"id": "A-4584415", "lat": 47.47248, "lng": -122.2039, "severity": 2, "startTime": "21:00.0", "weatherCondition": "Cloudy", "temperature": 41.0, "humidity": 73.0, "visibility": 10.0, "windSpeed": 6.0, "description": "Update 7:23 AM : On I-405 northbound just south of SR 169 (MP 3) there is a collision blocking the left lane. The State Patrol has arrived on the scene.", "street": "I-405 N", "city": "Renton", "state": "WA", "distance": 0.821}, {"id": "A-4469788", "lat": 33.85292, "lng": -84.29941, "severity": 2, "startTime": "2/20/2022 15:16", "weatherCondition": "Fair", "temperature": 58.0, "humidity": 23.0, "visibility": 10.0, "windSpeed": 6.0, "description": "Slow traffic on I-85 S - GA-403 S from Shallowford Rd exit [93] to N Druid Hills Rd (GA-42) exit [89] due to accident.", "street": "GA-403 S", "city": "Atlanta", "state": "GA", "distance": 0.69}, {"id": "A-4541595", "lat": 42.7409, "lng": -84.51381, "severity": 4, "startTime": "9/6/2022 21:34", "weatherCondition": "Fair", "temperature": 64.0, "humidity": 90.0, "visibility": 8.0, "windSpeed": 0.0, "description": "Incident on M-43 EB near MERRILL Road closed. Take alternate route.", "street": "E Saginaw St", "city": "Lansing", "state": "MI", "distance": 0.03}, {"id": "A-561504", "lat": 38.6167, "lng": -121.42048, "severity": 3, "startTime": "7/19/2022 17:51", "weatherCondition": "Fair", "temperature": 99.0, "humidity": 10.0, "visibility": 10.0, "windSpeed": 13.0, "description": "Crash on I-80-BR Northbound at Exit 11 / Marconi Ave.", "street": "I-80-BR", "city": "Sacramento", "state": "CA", "distance": 0.0}, {"id": "A-536180", "lat": 33.27206, "lng": -81.28506, "severity": 1, "startTime": "8/16/2022 9:48", "weatherCondition": "Cloudy", "temperature": 75.0, "humidity": 89.0, "visibility": 4.0, "windSpeed": 7.0, "description": "Crash on SC-70 at Reedy Branch Rd.", "street": "Reedy Branch Rd", "city": "Blackville", "state": "SC", "distance": 0.0}, {"id": "A-4532661", "lat": 43.95258, "lng": -92.05969, "severity": 2, "startTime": "4/17/2022 16:20", "weatherCondition": "Mostly Cloudy", "temperature": 45.0, "humidity": 43.0, "visibility": 10.0, "windSpeed": 5.0, "description": "Slow traffic at MN-74 exit [233] due to accident.", "street": "I-90 W", "city": "Saint Charles", "state": "MN", "distance": 0.301}, {"id": "A-564955", "lat": 30.78447, "lng": -88.27649, "severity": 1, "startTime": "7/15/2022 16:58", "weatherCondition": "Partly Cloudy", "temperature": 89.0, "humidity": 59.0, "visibility": 10.0, "windSpeed": 5.0, "description": "Crash on US-98 Moffett Rd at CR-25 Snow Rd.", "street": "Moffett Rd", "city": "Semmes", "state": "AL", "distance": 0.0}, {"id": "A-5218169", "lat": 34.03966, "lng": -118.17361, "severity": 2, "startTime": "37:00.0", "weatherCondition": "Fair", "temperature": 63.0, "humidity": 67.0, "visibility": 10.0, "windSpeed": 0.0, "description": "Slow traffic from E 3rd St (S Eastern Ave) to I-10/San Bernardino Fwy (N Eastern Ave) due to accident.", "street": "N Eastern Ave", "city": "Los Angeles", "state": "CA", "distance": 0.1}, {"id": "A-4952792", "lat": 40.37964, "lng": -77.88697, "severity": 4, "startTime": "8/11/2022 21:53", "weatherCondition": "Fair", "temperature": 66.0, "humidity": 73.0, "visibility": 10.0, "windSpeed": 6.0, "description": "Crash on PA 747 both directions between JONES ST and DIVISION ST SHIRLEY ST. All lanes closed.", "street": "S Division St", "city": "Mt Union", "state": "PA", "distance": 0.067}, {"id": "A-700725", "lat": 33.92256, "lng": -84.4848, "severity": 3, "startTime": "2/22/2022 21:44", "weatherCondition": "Mostly Cloudy", "temperature": 59.0, "humidity": 90.0, "visibility": 10.0, "windSpeed": 2.0, "description": "One lane blocked due to crash on I-75 Northbound at Exit 261 Delk Rd.", "street": "Delk Rd SE", "city": "Marietta", "state": "GA", "distance": 0.0}, {"id": "A-4757110", "lat": 35.88842, "lng": -119.27088, "severity": 2, "startTime": "10/6/2022 12:10", "weatherCondition": "Fair", "temperature": 86.0, "humidity": 36.0, "visibility": 10.0, "windSpeed": 5.0, "description": "Incident on E SUTTER AVE near HOUSE 599 Right shoulder closed.", "street": "E Sutter Ave", "city": "Earlimart", "state": "CA", "distance": 0.155}, {"id": "A-746617", "lat": 41.38094, "lng": -81.99354, "severity": 3, "startTime": "1/15/2022 10:23", "weatherCondition": "Cloudy", "temperature": 20.0, "humidity": 68.0, "visibility": 9.0, "windSpeed": 14.0, "description": "Lane blocked due to accident on I-80 Westbound after Exit 151 / OH-10.", "street": "David Dr", "city": "North Ridgeville", "state": "OH", "distance": 0.0}, {"id": "A-725040", "lat": 41.03993, "lng": -81.50519, "severity": 3, "startTime": "2/2/2022 17:13", "weatherCondition": "Light Rain", "temperature": 41.0, "humidity": 82.0, "visibility": 5.0, "windSpeed": 8.0, "description": "Two lanes blocked due to accident on I-77 Southbound at Exit 123B OH-764.", "street": "I-77 S", "city": "Akron", "state": "OH", "distance": 0.0}, {"id": "A-550175", "lat": 40.65927, "lng": -74.28661, "severity": 1, "startTime": "8/1/2022 4:27", "weatherCondition": "Light Rain", "temperature": 68.0, "humidity": 92.0, "visibility": 7.0, "windSpeed": 5.0, "description": "Left lane closed due to crash on Garden State Pkwy Southbound before NJ-28.", "street": "Garden State Pkwy N", "city": "Cranford", "state": "NJ", "distance": 0.0}, {"id": "A-3769491", "lat": 43.00419, "lng": -89.38427, "severity": 4, "startTime": "5/25/2022 23:35", "weatherCondition": "Cloudy", "temperature": 62.0, "humidity": 98.0, "visibility": 0.0, "windSpeed": 0.0, "description": "Incident on US-14 EB near US-14 Road closed. Take alternate route.", "street": "US-14 E", "city": "Madison", "state": "WI", "distance": 0.196}, {"id": "A-3892547", "lat": 34.0982, "lng": -80.85597, "severity": 2, "startTime": "47:30.0", "weatherCondition": "Light Rain", "temperature": 53.0, "humidity": 89.0, "visibility": 1.0, "windSpeed": 0.0, "description": "Stationary traffic from I-20 W to Sparkleberry Crossing Rd due to accident.", "street": "Clemson Rd", "city": "Columbia", "state": "SC", "distance": 0.121}, {"id": "A-606844", "lat": 40.91909, "lng": -73.86852, "severity": 3, "startTime": "5/30/2022 21:56", "weatherCondition": "Fair", "temperature": 77.0, "humidity": 62.0, "visibility": 10.0, "windSpeed": 8.0, "description": "Left lane blocked due to crash on I-87 Southbound at Exit 2 Central Park Ave.", "street": "I-87 N", "city": "Yonkers", "state": "NY", "distance": 0.0}, {"id": "A-566164", "lat": 32.88324, "lng": -80.01949, "severity": 3, "startTime": "7/14/2022 19:03", "weatherCondition": "Heavy T-Storm", "temperature": 73.0, "humidity": 96.0, "visibility": 4.0, "windSpeed": 15.0, "description": "Lane blocked due to crash on I-26 Eastbound at Exits 212B 212B-C 212C I-526 Exits 17 17A 17B.", "street": "I-526", "city": "Charleston", "state": "SC", "distance": 0.0}, {"id": "A-4585629", "lat": 33.76203, "lng": -117.86378, "severity": 2, "startTime": "4/30/2022 8:10", "weatherCondition": "Fair", "temperature": 62.0, "humidity": 65.0, "visibility": 9.0, "windSpeed": 0.0, "description": "Accident on 17th St (I-5) from Main St/Broadway (I-5) to I-5 N - Santa Ana Fwy N.", "street": "I-5", "city": "Santa Ana", "state": "CA", "distance": 0.225}, {"id": "A-522506", "lat": 41.80107, "lng": -87.68913, "severity": 1, "startTime": "8/30/2022 7:23", "weatherCondition": "Fair", "temperature": 69.0, "humidity": 73.0, "visibility": 10.0, "windSpeed": 8.0, "description": "Crash on 51st St at Rockwell St.", "street": "W 51st St", "city": "Chicago", "state": "IL", "distance": 0.0}, {"id": "A-5325894", "lat": 30.40674, "lng": -91.19874, "severity": 2, "startTime": "48:05.0", "weatherCondition": "Fair", "temperature": 88.0, "humidity": 51.0, "visibility": 10.0, "windSpeed": 10.0, "description": "Slow traffic on Gourrier Ave from River Rd to Athletic Service Ln due to accident.", "street": "River Rd", "city": "Baton Rouge", "state": "LA", "distance": 0.414}, {"id": "A-692520", "lat": 39.53379, "lng": -119.76659, "severity": 3, "startTime": "3/1/2022 15:56", "weatherCondition": "Mostly Cloudy", "temperature": 71.0, "humidity": 24.0, "visibility": 10.0, "windSpeed": 7.0, "description": "Lane blocked due to crash on I-80 Eastbound at Exit 17 Rock Blvd.", "street": "I-80 E", "city": "Sparks", "state": "NV", "distance": 0.0},