[{"id": "A-5078028", "lat": 40.43374, "lng": -79.99608, "severity": 2, "startTime": "3/10/2022 6:20", "weatherCondition": "Fair", "temperature": 29.0, "humidity": 89.0, "visibility": 3.0, "windSpeed": 6.0, "description": "Stationary traffic from Boulevard of the Allies (W Liberty Ave) to P J McArdle Rd (Liberty Bridge) due to accident.", "street": "Liberty Brg", "city": "Pittsburgh", "state": "PA", "distance": 0.358}, {"id": "A-547697", "lat": 33.10631, "lng": -80.12865, "severity": 1, "startTime": "8/3/2022 7:59", "weatherCondition": "", "temperature": null, "humidity": null, "visibility": null, "windSpeed": null, "description": "Crash on US-176 State Rd at Palmetto Walk Dr.", "street": "State Rd", "city": "Summerville", "state": "SC", "distance": 0.0}, {"id": "A-578457", "lat": 34.43936, "lng": -82.65593, "severity": 1, "startTime": "6/30/2022 18:05", "weatherCondition": "Fair", "temperature": 89.0, "humidity": 48.0, "visibility": 10.0, "windSpeed": 10.0, "description": "Lane blocked due to crash on Harrington Dr at True Temper Rd.", "street": "True Temper Rd", "city": "Anderson", "state": "SC", "distance": 0.0}, {"id": "A-5302231", "lat": 36.29724, "lng": -119.31378, "severity": 4, "startTime": "8/1/2022 5:08", "weatherCondition": "Fair", "temperature": 76.0, "humidity": 71.0, "visibility": 10.0, "windSpeed": 0.0, "description": "Incident on CA-63 SB near CA-201 Road closed. Take alternate route.", "street": "S Mooney Blvd", "city": "Visalia", "state": "CA", "distance": 0.411}, {"id": "A-4924368", "lat": 43.42055, "lng": -83.94855, "severity": 4, "startTime": "33:00.0", "weatherCondition": "Light Snow", "temperature": 32.0, "humidity": 92.0, "visibility": 3.0, "windSpeed": 5.0, "description": "Incident on M-46 WB near BAGLEY RD Road closed. Take alternate route.", "street": "E Remington St", "city": "Saginaw", "state": "MI", "distance": 0.277}, {"id": "A-4089890", "lat": 34.98323, "lng": -90.01577, "severity": 4, "startTime": "4/18/2022 16:54", "weatherCondition": "Fair", "temperature": 61.0, "humidity": 52.0, "visibility": 10.0, "windSpeed": 12.0, "description": "Incident on US-51 SB near BROOKHAVEN DR Road closed. Take alternate route.", "street": "Highway 51 N", "city": "Southaven", "state": "MS", "distance": 0.09}, {"id": "A-560429", "lat": 40.70938, "lng": -111.90372, "severity": 1, "startTime": "7/20/2022 15:49", "weatherCondition": "Fair", "temperature": 96.0, "humidity": 21.0, "visibility": 10.0, "windSpeed": 0.0, "description": "Right hand shoulder blocked due to crash on I-15 Northbound at Exit 303 UT-171 3300.", "street": "I-15", "city": "Salt Lake City", "state": "UT", "distance": 0.0}, {"id": "A-655950", "lat": 30.2893, "lng": -81.98194, "severity": 3, "startTime": "4/8/2022 22:35", "weatherCondition": "Mostly Cloudy", "temperature": 59.0, "humidity": 59.0, "visibility": 10.0, "windSpeed": 9.0, "description": "Two lanes blocked due to crash on I-10 Westbound at Exit 343 US-301.", "street": "FL-8 W", "city": "Jacksonville", "state": "FL", "distance": 0.0}, {"id": "A-5183662", "lat": 44.95752, "lng": -93.091, "severity": 4, "startTime": "47:30.0", "weatherCondition": "Light Snow / Windy", "temperature": 17.0, "humidity": 71.0, "visibility": 2.0, "windSpeed": 22.0, "description": "Closed road from US-10 E to I-94 W due to accident.", "street": "US-10 E", "city": "Saint Paul", "state": "MN", "distance": 0.171}, {"id": "A-647890", "lat": 47.20687, "lng": -122.46172, "severity": 3, "startTime": "4/16/2022 12:10", "weatherCondition": "Light Rain", "temperature": 41.0, "humidity": 93.0, "visibility": 8.0, "windSpeed": 6.0, "description": "Right lane blocked due to crash on I-5 Northbound at Exit 130 56th St.", "street": "I-5 S", "city": "Tacoma", "state": "WA", "distance": 0.0}, {"id": "A-552168", "lat": 40.74007, "lng": -73.84549, "severity": 3, "startTime": "7/29/2022 6:05", "weatherCondition": "Partly Cloudy", "temperature": 76.0, "humidity": 71.0, "visibility": 10.0, "windSpeed": 9.0, "description": "Queueing traffic and right lane blocked due to crash on I-495 Westbound at Exit 20 Grand Central Pkwy.", "street": "Long Island Expy", "city": "Flushing", "state": "NY", "distance": 0.0}, {"id": "A-587964", "lat": 37.55403, "lng": -77.41734, "severity": 1, "startTime": "6/21/2022 4:15", "weatherCondition": "Mostly Cloudy", "temperature": 67.0, "humidity": 57.0, "visibility": 10.0, "windSpeed": 7.0, "description": "Crash on Whitcomb St at Redwood Ave.", "street": "Whitcomb St", "city": "Richmond", "state": "VA", "distance": 0.0}, {"id": "A-4431866", "lat": 32.822, "lng": -96.75598, "severity": 2, "startTime": "10/1/2022 4:38", "weatherCondition": "Fair", "temperature": 57.0, "humidity": 62.0, "visibility": 10.0, "windSpeed": 3.0, "description": "Incident on LLANO AVE near ABRAMS RD Drive with caution.", "street": "Llano Ave", "city": "Dallas", "state": "TX", "distance": 0.18}, {"id": "A-5455306", "lat": 32.20684, "lng": -110.88104, "severity": 4, "startTime": "07:30.0", "weatherCondition": "Fair", "temperature": 67.0, "humidity": 12.0, "visibility": 10.0, "windSpeed": 7.0, "description": "Closed road from S Swan Rd (E 22nd St) to S Craycroft Rd (E 22nd St) due to accident.", "street": "E 22nd St", "city": "Tucson", "state": "AZ", "distance": 0.099}, {"id": "A-529974", "lat": 39.26465, "lng": -94.44635, "severity": 3, "startTime": "8/22/2022 21:39", "weatherCondition": "Fair", "temperature": 70.0, "humidity": 78.0, "visibility": 10.0, "windSpeed": 0.0, "description": "Left lane closed due to crash on I-35 Northbound before Exit 17 MO-291.", "street": "N State Route 291", "city": "Liberty", "state": "MO", "distance": 0.0}, {"id": "A-748284", "lat": 41.97975, "lng": -88.13601, "severity": 2, "startTime": "1/13/2022 16:30", "weatherCondition": "Partly Cloudy", "temperature": 37.0, "humidity": 73.0, "visibility": 9.0, "windSpeed": 8.0, "description": "Lane blocked due to accident on US-20 at CR-29 Greenbrook Blvd.", "street": "Greenbrook Blvd", "city": "Hanover Park", "state": "IL", "distance": 0.0}, {"id": "A-616188", "lat": 35.22302, "lng": -89.73737, "severity": 3, "startTime": "5/20/2022 6:33", "weatherCondition": "Fair", "temperature": 75.0, "humidity": 78.0, "visibility": 10.0, "windSpeed": 10.0, "description": "Left lane blocked due to crash on I-40 Westbound at Exit 20 Canada Rd.", "street": "I-40 E", "city": "Arlington", "state": "TN", "distance": 0.0}, {"id": "A-567748", "lat": 36.09034, "lng": -86.62652, "severity": 1, "startTime": "7/13/2022 7:47", "weatherCondition": "Mostly Cloudy", "temperature": 78.0, "humidity": 66.0, "visibility": 10.0, "windSpeed": 3.0, "description": "Crash on Smith Springs Rd at Bell Rd.", "street": "Bell Rd", "city": "Nashville", "state": "TN", "distance": 0.0}, {"id": "A-578060", "lat": 43.01953, "lng": -83.55584, "severity": 1, "startTime": "7/1/2022 8:30", "weatherCondition": "Fair", "temperature": 74.0, "humidity": 59.0, "visibility": 10.0, "windSpeed": 7.0, "description": "Crash on Irish Rd at Court St.", "street": "E Court St", "city": "Davison", "state": "MI", "distance": 0.0}, {"id": "A-4700919", "lat": 42.26911, "lng": -84.52256, "severity": 4, "startTime": "10/5/2022 12:24", "weatherCondition": "Fair", "temperature": 66.0, "humidity": 42.0, "visibility": 10.0, "windSpeed": 5.0, "description": "WB I-94 after BUS I-94 Exit 136", "street": "I-94", "city": "Parma", "state": "MI", "distance": 0.4920000000000001}, {"id": "A-3828750", "lat": 30.40392, "lng": -86.97215, "severity": 2, "startTime": "10/13/2022 9:14", "weatherCondition": "Fair", "temperature": 69.0, "humidity": 86.0, "visibility": 10.0, "windSpeed": 3.0, "description": "Incident on GULF BREEZE PKWY near BERGREN RD Drive with caution.", "street": "Gulf Breeze Pkwy", "city": "Gulf Breeze", "state": "FL", "distance": 0.234}, {"id": "A-4191625", "lat": 35.79235, "lng": -78.57951, "severity": 2, "startTime": "30:30.0", "weatherCondition": "Fair", "temperature": 73.0, "humidity": 81.0, "visibility": 10.0, "windSpeed": 6.0, "description": "Slow traffic on I-440 W from exit [13B] to exit [12] due to accident.", "street": "Cliff Benson Beltline", "city": "Raleigh", "state": "NC", "distance": 0.468}, {"id": "A-577885", "lat": 26.66735, "lng": -81.88035, "severity": 1, "startTime": "7/1/2022 8:58", "weatherCondition": "Fair", "temperature": 82.0, "humidity": 79.0, "visibility": 10.0, "windSpeed": null, "description": "Crash on CR-78A Pondella Rd at US-41-BR Tamiami Trl.", "street": "Cardinal Dr", "city": "North Fort Myers", "state": "FL", "distance": 0.0}, {"id": "A-598023", "lat": 34.85885, "lng": -82.26042, "severity": 1, "startTime": "6/9/2022 18:07", "weatherCondition": "Fair", "temperature": 89.0, "humidity": 34.0, "visibility": 10.0, "windSpeed": 12.0, "description": "Crash on Pelham Rd at I-85 Exit 54.", "street": "I-85 S", "city": "Greenville", "state": "SC", "distance": 0.0}, {"id": "A-4245274", "lat": 40.25813, "lng": -76.83792, "severity": 4, "startTime": "09:00.0", "weatherCondition": "Fair", "temperature": 37.0, "humidity": 39.0, "visibility": 10.0, "windSpeed": 13.0, "description": "Incident on I-83 NB near 19TH ST Road closed. Take alternate route.", "street": "I-83 N", "city": "Harrisburg", "state": "PA", "distance": 0.218}, {"id": "A-587947", "lat": 34.97969, "lng": -81.94369, "severity": 1, "startTime": "6/21/2022 6:40", "weatherCondition": "Fair", "temperature": 63.0, "humidity": 77.0, "visibility": 10.0, "windSpeed": 5.0, "description": "Crash on SC-9 Boiling Springs Rd at California Ave.", "street": "Boiling Springs Rd", "city": "Spartanburg", "state": "SC", "distance": 0.0}, {"id": "A-646172", "lat": 38.81551, "lng": -104.82816, "severity": 3, "startTime": "4/18/2022 16:53", "weatherCondition": "Fair", "temperature": 57.0, "humidity": 27.0, "visibility": 10.0, "windSpeed": 18.0, "description": "Lane blocked due to crash on I-25 Northbound at Exit 140 Tejon St.", "street": "I-25 S", "city": "Colorado Springs", "state": "CO", "distance": 0.0}, {"id": "A-4079716", "lat": 36.72785, "lng": -119.95187, "severity": 2, "startTime": "7/7/2022 15:35", "weatherCondition": "Fair", "temperature": 93.0, "humidity": 30.0, "visibility": 10.0, "windSpeed": 9.0, "description": "Incident on W KEARNEY BLVD near S WESTLAWN AVE Expect delays.", "street": "S Westlawn Ave", "city": "Fresno", "state": "CA", "distance": 0.477}, {"id": "A-631726", "lat": 29.91769, "lng": -90.0176, "severity": 1, "startTime": "5/2/2022 8:03", "weatherCondition": "Mostly Cloudy", "temperature": 81.0, "humidity": 72.0, "visibility": 10.0, "windSpeed": 13.0, "description": "Crash on Holiday Dr at LA-428 Behrman Pl.", "street": "Behrman Pl", "city": "New Orleans", "state": "LA", "distance": 0.0}, {"id": "A-576969", "lat": 39.06881, "lng": -94.51094, "severity": 3, "startTime": "7/2/2022 7:51", "weatherCondition": "Light Rain", "temperature": 67.0, "humidity": null, "visibility": 10.0, "windSpeed": null, "description": "Lane blocked due to crash on I-70 Westbound at Exit 7B Manchester Trfy.", "street": "US-24", "city": "Kansas City", "state": "MO", "distance": 0.0}, {"id": "A-5291038", "lat": 35.03083, "lng": -78.87725, "severity": 4, "startTime": "9/21/2022 13:59", "weatherCondition": "Fair", "temperature": 90.0, "humidity": 39.0, "visibility": 10.0, "windSpeed": 6.0, "description": "The road is closed at NC\u00a087\u00a0(Martin Luther King Jr. Freeway)", "street": "Martin Luther King Jr Fwy", "city": "Fayetteville", "state": "NC", "distance": 0.762}, {"id": "A-5414685", "lat": 41.72425, "lng": -87.99216, "severity": 2, "startTime": "20:30.0", "weatherCondition": "Cloudy / Windy", "temperature": 23.0, "humidity": 74.0, "visibility": 10.0, "windSpeed": 21.0, "description": "Slow traffic on Tri State Pkwy E - Adlai E Stevenson Expy N - I-55 N from Lemont Rd/Exit 271 (I-55) to US-20/US-45/US-12/Exit 279A (I-55) due to accident.", "street": "I-55 N", "city": "Darien", "state": "IL", "distance": 6.436}, {"id": "A-3740048", "lat": 30.26005, "lng": -97.90719, "severity": 2, "startTime": "9/15/2022 13:13", "weatherCondition": "Partly Cloudy", "temperature": 87.0, "humidity": 51.0, "visibility": 10.0, "windSpeed": 3.0, "description": "Incident on W TX-71 near OLD BEE CAVES RD Expect delays.", "street": "W Highway 71", "city": "Austin", "state": "TX", "distance": 1.144}, {"id": "A-4167296", "lat": 40.79982, "lng": -73.92991, "severity": 2, "startTime": "5/29/2022 13:28", "weatherCondition": "Fair", "temperature": 75.0, "humidity": 44.0, "visibility": 10.0, "windSpeed": 0.0, "description": "Slow traffic from I-278/Triborough Bridge/Exit 17 (FDR Dr) to 106th St/Exit 15 (FDR Dr) due to accident.", "street": "FDR Dr S", "city": "New York", "state": "NY", "distance": 0.46}, {"id": "A-527106", "lat": 35.71754, "lng": -119.41935, "severity": 1, "startTime": "8/25/2022 5:47", "weatherCondition": "Fair", "temperature": 80.0, "humidity": 29.0, "visibility": 9.0, "windSpeed": 0.0, "description": "Crash on Pond Rd at Jumper Ave.", "street": "Pond Rd", "city": "Wasco", "state": "CA", "distance": 0.0}, {"id": "A-540474", "lat": 36.60462, "lng": -121.5135, "severity": 1, "startTime": "8/10/2022 16:20", "weatherCondition": "Fair", "temperature": 77.0, "humidity": 52.0, "visibility": 10.0, "windSpeed": 16.0, "description": "Crash on Esperanza Rd at Old Stage Rd.", "street": "Old Stage Rd", "city": "Salinas", "state": "CA", "distance": 0.0}, {"id": "A-4320453", "lat": 36.08051, "lng": -79.52715, "severity": 4, "startTime": "15:00.0", "weatherCondition": "Rain", "temperature": 68.0, "humidity": 96.0, "visibility": 2.0, "windSpeed": 12.0, "description": "The road is closed near University Drive.\u00c2", "street": "University Dr", "city": "Burlington", "state": "NC", "distance": 0.03}, {"id": "A-605058", "lat": 42.88509, "lng": -86.14013, "severity": 1, "startTime": "6/1/2022 8:15", "weatherCondition": "Mostly Cloudy", "temperature": 66.0, "humidity": 75.0, "visibility": 10.0, "windSpeed": 10.0, "description": "Crash on Port Sheldon St at 144th Ave.", "street": "Port Sheldon St", "city": "Holland", "state": "MI", "distance": 0.0}, {"id": "A-660280", "lat": 39.73352, "lng": -75.52336, "severity": 3, "startTime": "4/5/2022 9:15", "weatherCondition": "", "temperature": null, "humidity": null, "visibility": null, "windSpeed": null, "description": "Lane blocked on exit ramp due to crash on I-495 Northbound at Exit 3 / 12th St.", "street": "I-495", "city": "Wilmington", "state": "DE", "distance": 0.0}, {"id": "A-644312", "lat": 40.85173, "lng": -73.95333, "severity": 3, "startTime": "4/20/2022 7:15", "weatherCondition": "Partly Cloudy", "temperature": 43.0, "humidity": 49.0, "visibility": 10.0, "windSpeed": 12.0, "description": "Left lane blocked due to crash on George Washington Bridge Eastbound on Upper Level.", "street": "George Washington Bridge", "city": "Fort Lee", "state": "NJ", "distance": 0.0}, {"id": "A-4983180", "lat": 40.22356, "lng": -76.61899, "severity": 4, "startTime": "10/6/2022 5:28", "weatherCondition": "Fair", "temperature": 50.0, "humidity": 89.0, "visibility": 10.0, "windSpeed": 8.0, "description": "Incident on PA-743 NB near VALLEY RD Road closed. Take alternate route.", "street": "School House Rd", "city": "Elizabethtown", "state": "PA", "distance": 0.052000000000000005}, {"id": "A-536448", "lat": 30.40463, "lng": -97.65511, "severity": 1, "startTime": "8/16/2022 7:52", "weatherCondition": "Fair", "temperature": 78.0, "humidity": 90.0, "visibility": 10.0, "windSpeed": 0.0, "description": "Crash on Performance Dr in Dessau.", "street": "Performance Dr", "city": "Austin", "state": "TX", "distance": 0.0}, {"id": "A-3857895", "lat": 38.27434, "lng": -85.7489, "severity": 4, "startTime": "11:00.0", "weatherCondition": "Fair", "temperature": 87.0, "humidity": 55.0, "visibility": 10.0, "windSpeed": 8.0, "description": "Closed road from S Clark Blvd to I-65 S due to accident.", "street": "Pearl St", "city": "Jeffersonville", "state": "IN", "distance": 0.129}, {"id": "A-713093", "lat": 32.94032, "lng": -83.7811, "severity": 3, "startTime": "2/11/2022 18:50", "weatherCondition": "Fair", "temperature": 59.0, "humidity": 38.0, "visibility": 10.0, "windSpeed": 6.0, "description": "Right lane blocked due to crash on I-75 Southbound at Exit 175 GA-19-SPUR Pate Rd.", "street": "I-75", "city": "Macon", "state": "GA", "distance": 0.0}, {"id": "A-688410", "lat": 34.06664, "lng": -81.02247, "severity": 3, "startTime": "3/4/2022 17:46", "weatherCondition": "Fair", "temperature": 66.0, "humidity": 34.0, "visibility": 10.0, "windSpeed": 0.0, "description": "Lane blocked due to crash on I-20 Westbound at Exit 70 US-321.", "street": "Fairfield Rd", "city": "Columbia", "state": "SC", "distance": 0.0}, {"id": "A-716009", "lat": 42.41824, "lng": -83.08777, "severity": 3, "startTime": "2/9/2022 16:37", "weatherCondition": "Fair", "temperature": 42.0, "humidity": 62.0, "visibility": 10.0, "windSpeed": 16.0, "description": "Left lane blocked due to crash on I-75 Northbound at Exit 57 Mcnichols Rd.", "street": "I-75 N", "city": "Highland Park", "state": "MI", "distance": 0.0}, {"id": "A-522405", "lat": 32.8737, "lng": -96.8816, "severity": 1, "startTime": "8/30/2022 8:32", "weatherCondition": "Cloudy", "temperature": 78.0, "humidity": 87.0, "visibility": 10.0, "windSpeed": 3.0, "description": "Crash on Denton Dr at Blystone Ln.", "street": "Denton Dr", "city": "Dallas", "state": "TX", "distance": 0.0}, {"id": "A-556335", "lat": 29.74675, "lng": -95.4611, "severity": 1, "startTime": "7/25/2022 11:57", "weatherCondition": "Partly Cloudy", "temperature": 93.0, "humidity": 45.0, "visibility": 10.0, "windSpeed": 10.0, "description": "Crash on Post Oak Blvd at Ambassador Way.", "street": "Ambassador Way", "city": "Houston", "state": "TX", "distance": 0.0}, {"id": "A-3769241", "lat": 38.65873, "lng": -77.71551, "severity": 4, "startTime": "9/9/2022 16:06", "weatherCondition": "Partly Cloudy", "temperature": 82.0, "humidity": 40.0, "visibility": 10.0, "windSpeed": 5.0, "description": "On Rt. 602 in the County of Fauquier in the vicinity of Weston Rd; Rt. 747E/W (Fauquier County) motorists can expect delays due to a vehicle crash. All north lanes are closed. All south lanes are clos", "street": "Weston Rd", "city": "Warrenton", "state": "VA", "distance": 0.101}, {"id": "A-559124", "lat": 38.55196, "lng": -121.69787, "severity": 3, "startTime": "7/21/2022 15:27", "weatherCondition": "Fair", "temperature": 93.0, "humidity": 23.0, "visibility": 10.0, "windSpeed": null, "description": "Fast lane blocked due to crash on I-80 Eastbound at Exit 75 Chiles Rd.", "street": "I-80", "city": "Davis", "state": "CA", "distance": 0.0}, {"id": "A-645532", "lat": 42.88518, "lng": -85.90143, "severity": 2, "startTime": "4/19/2022 9:14", "weatherCondition": "Cloudy", "temperature": 37.0, "humidity": 73.0, "visibility": 10.0, "windSpeed": 13.0, "description": "One lane blocked due to crash on 48th Ave at Port Sheldon St.", "street": "48th Ave", "city": "Hudsonville", "state": "MI", "distance": 0.0}, {"id": "A-730470", "lat": 41.74435, "lng": -87.84959, "severity": 3, "startTime": "1/28/2022 15:36", "weatherCondition": "Fair", "temperature": 25.0, "humidity": 53.0, "visibility": 10.0, "windSpeed": 8.0, "description": "Right lane blocked and right hand shoulder blocked due to accident on I-294 Tri-State Tollway Southbound before IL-171 Archer Ave.", "street": "Archer Ave", "city": "Willow Springs", "state": "IL", "distance": 0.0}, {"id": "A-4936090", "lat": 38.68685, "lng": -121.09923, "severity": 2, "startTime": "2/10/2022 12:10", "weatherCondition": "Fair", "temperature": 64.0, "humidity": 56.0, "visibility": 10.0, "windSpeed": 3.0, "description": "Accident from Alexandra Dr to Powers Dr.", "street": "Beatty Dr", "city": "El Dorado Hills", "state": "CA", "distance": 0.115}, {"id": "A-661039", "lat": 33.91582, "lng": -84.40634, "severity": 3, "startTime": "4/5/2022 15:25", "weatherCondition": "Cloudy", "temperature": 61.0, "humidity": 94.0, "visibility": 10.0, "windSpeed": 15.0, "description": "Three lanes blocked due to crash on I-285 Eastbound at Exit 24 Riverside Dr.", "street": "GA-407 E", "city": "Atlanta", "state": "GA", "distance": 0.0}, {"id": "A-586987", "lat": 35.95899, "lng": -78.52125, "severity": 1, "startTime": "6/21/2022 16:15", "weatherCondition": "Fair", "temperature": 86.0, "humidity": 35.0, "visibility": 10.0, "windSpeed": 7.0, "description": "Crash on Cimarron Pkwy at US-1-ALT Main St.", "street": "S Main St", "city": "Wake Forest", "state": "NC", "distance": 0.0}, {"id": "A-4711561", "lat": 26.96467, "lng": -80.17214, "severity": 4, "startTime": "1/11/2022 15:30", "weatherCondition": "Cloudy", "temperature": 70.0, "humidity": 60.0, "visibility": 7.0, "windSpeed": 12.0, "description": "Incident on I-95 SB near MM 88 Road closed. Take alternate route.", "street": "I-95", "city": "Hobe Sound", "state": "FL", "distance": 2.097}, {"id": "A-516867", "lat": 29.40871, "lng": -98.5895, "severity": 1, "startTime": "9/5/2022 6:03", "weatherCondition": "Cloudy", "temperature": 72.0, "humidity": 100.0, "visibility": 9.0, "windSpeed": 0.0, "description": "Lane blocked on exit ramp due to crash on State Highway 151 Eastbound near Castroville Rd.", "street": "Castroville Rd", "city": "San Antonio", "state": "TX", "distance": 0.0}, {"id": "A-624919", "lat": 42.14571, "lng": -71.0087, "severity": 1, "startTime": "5/12/2022 16:05", "weatherCondition": "Fair", "temperature": 73.0, "humidity": 59.0, "visibility": 10.0, "windSpeed": 8.0, "description": "Crash on MA-37 Franklin St at King Rd.", "street": "S Franklin St", "city": "Holbrook", "state": "MA", "distance": 0.0}, {"id": "A-5222497", "lat": 38.98791, "lng": -76.53176, "severity": 4, "startTime": "1/23/2022 16:56", "weatherCondition": "", "temperature": null, "humidity": null, "visibility": null, "windSpeed": null, "description": "US 50 WEST AT EXIT 23A MD 2 SOLOMONS ISLAND ROAD (WB)", "street": "23A", "city": "Annapolis", "state": "MD", "distance": 0.116}, {"id": "A-536674", "lat": 27.86853, "lng": -82.72894, "severity": 1, "startTime": "8/16/2022 7:18", "weatherCondition": "Fair", "temperature": 77.0, "humidity": 94.0, "visibility": 10.0, "windSpeed": 3.0, "description": "Crash on US-19A-ALT 66th St Southbound at Regent Blvd.", "street": "66th St N", "city": "Pinellas Park", "state": "FL", "distance": 0.0}, {"id": "A-547917", "lat": 29.72539, "lng": -95.35775, "severity": 1, "startTime": "8/3/2022 4:26", "weatherCondition": "Fair", "temperature": 79.0, "humidity": 88.0, "visibility": 10.0, "windSpeed": 6.0, "description": "Crash on Alabama St both ways at Nettleton St.", "street": "Nettleton St", "city": "Houston", "state": "TX", "distance": 0.0}, {"id": "A-4076805", "lat": 31.34903, "lng": -83.48776, "severity": 4, "startTime": "08:00.0", "weatherCondition": "Fair", "temperature": 82.0, "humidity": 72.0, "visibility": 10.0, "windSpeed": 6.0, "description": "Incident on I-75 SB near US-41 Road closed. Take alternate route.", "street": "I-75", "city": "Lenox", "state": "GA", "distance": 5.9510000000000005}, {"id": "A-597433", "lat": 26.57173, "lng": -81.74886, "severity": 1, "startTime": "6/10/2022 8:18", "weatherCondition": "Partly Cloudy", "temperature": 80.0, "humidity": 87.0, "visibility": 10.0, "windSpeed": 5.0, "description": "Crash on Gateway Blvd at Griffin Dr.", "street": "Gateway Blvd", "city": "Fort Myers", "state": "FL", "distance": 0.0}, {"id": "A-5031578", "lat": 47.5475, "lng": -122.32148, "severity": 4, "startTime": "6/29/2022 6:54", "weatherCondition": "Cloudy", "temperature": 56.0, "humidity": 84.0, "visibility": 10.0, "windSpeed": 0.0, "description": "Construction on S MICHIGAN ST WB near CORSON AVE Road closed. Take alternate route.", "street": "S Bailey St", "city": "Seattle", "state": "WA", "distance": 0.408}, {"id": "A-5246266", "lat": 33.14789, "lng": -111.35691, "severity": 4, "startTime": "50:04.0", "weatherCondition": "Fair", "temperature": 45.0, "humidity": 19.0, "visibility": 10.0, "windSpeed": 5.0, "description": "Road closed due to a crash on SR-79 Northbound at E Cottonwood Canyon Rd (143) . Lane Closed.", "street": "N Highway 79", "city": "Superior", "state": "AZ", "distance": 0.825}, {"id": "A-4844457", "lat": 33.51522, "lng": -112.26925, "severity": 4, "startTime": "4/16/2022 3:17", "weatherCondition": "Fair", "temperature": 61.0, "humidity": 26.0, "visibility": 10.0, "windSpeed": 0.0, "description": "Road closed due to a crash on 101-LOOP Southbound near Camelback Rd (5) . Lane Closed.", "street": "AZ-101-LOOP", "city": "Glendale", "state": "AZ", "distance": 0.813}, {"id": "A-4301871", "lat": 39.10703, "lng": -94.58749, "severity": 4, "startTime": "11/13/2022 13:54", "weatherCondition": "Fair", "temperature": 39.0, "humidity": 46.0, "visibility": 10.0, "windSpeed": 7.0, "description": "Incident on I-70 near THE PASEO Road closed. Take alternate route.", "street": "US-40", "city": "Kansas City", "state": "MO", "distance": 0.016}, {"id": "A-3815509", "lat": 39.80741, "lng": -86.89514, "severity": 4, "startTime": "07:16.0", "weatherCondition": "Mostly Cloudy", "temperature": 70.0, "humidity": 84.0, "visibility": 10.0, "windSpeed": 8.0, "description": "Incident on US-231 SB near W 1200 Road closed. Take alternate route.", "street": "N US Highway 231", "city": "Roachdale", "state": "IN", "distance": 3.1260000000000003}, {"id": "A-4805472", "lat": 36.34929, "lng": -80.0391, "severity": 4, "startTime": "23:00.0", "weatherCondition": "Partly Cloudy", "temperature": 66.0, "humidity": 100.0, "visibility": 10.0, "windSpeed": 0.0, "description": "The road is closed on US 311 near NC 772.", "street": "US-311", "city": "Pine Hall", "state": "NC", "distance": 0.505}, {"id": "A-586006", "lat": 26.25991, "lng": -80.13384, "severity": 3, "startTime": "6/22/2022 10:33", "weatherCondition": "Partly Cloudy", "temperature": 85.0, "humidity": 57.0, "visibility": 10.0, "windSpeed": 13.0, "description": "Two lanes blocked due to crash on I-95 Southbound at Exit 38A Copans Rd.", "street": "I-95 Express Lanes", "city": "Pompano Beach", "state": "FL", "distance": 0.0}, {"id": "A-3788245", "lat": 33.76941, "lng": -84.23282, "severity": 4, "startTime": "3/1/2022 21:13", "weatherCondition": "Fair", "temperature": 56.0, "humidity": 34.0, "visibility": 10.0, "windSpeed": 0.0, "description": "I-285 S - GA-407 S is closed from GA-10/Memorial Dr/Exit 41 (I-285) to Redan Rd/Exit 42 (I-285) due to accident.", "street": "GA-407 S", "city": "Decatur", "state": "GA", "distance": 0.268}, {"id": "A-4220353", "lat": 30.19133, "lng": -81.6956, "severity": 2, "startTime": "9/15/2022 19:33", "weatherCondition": "Mostly Cloudy", "temperature": 80.0, "humidity": 67.0, "visibility": 10.0, "windSpeed": 9.0, "description": "Incident on I-295 SB near US-17 Drive with caution.", "street": "W Beltway S", "city": "Orange Park", "state": "FL", "distance": 0.068}, {"id": "A-572921", "lat": 41.95413, "lng": -88.08099, "severity": 1, "startTime": "7/7/2022 7:41", "weatherCondition": "Mostly Cloudy", "temperature": 72.0, "humidity": 84.0, "visibility": 7.0, "windSpeed": 7.0, "description": "Crash on Bloomingdale Rd at Schick Rd.", "street": "S Bloomingdale Rd", "city": "Bloomingdale", "state": "IL", "distance": 0.0}, {"id": "A-601148", "lat": 30.14491, "lng": -97.69675, "severity": 1, "startTime": "6/7/2022 9:29", "weatherCondition": "Partly Cloudy", "temperature": 80.0, "humidity": 74.0, "visibility": 10.0, "windSpeed": 17.0, "description": "Crash on US-183 near FM-1625.", "street": "US-183", "city": "Austin", "state": "TX", "distance": 0.0}, {"id": "A-4319075", "lat": 27.12199, "lng": -80.27359, "severity": 2, "startTime": "1/9/2022 23:59", "weatherCondition": "Cloudy", "temperature": 70.0, "humidity": 88.0, "visibility": 10.0, "windSpeed": 0.0, "description": "Slow traffic on I-95 S from Exit 102 (I-95) to FL-76/Exit 101 (I-95) due to accident.", "street": "I-95", "city": "Palm City", "state": "FL", "distance": 0.784}, {"id": "A-4384689", "lat": 39.1057, "lng": -94.84131, "severity": 2, "startTime": "3/6/2022 18:41", "weatherCondition": "Light Snow", "temperature": 32.0, "humidity": 92.0, "visibility": 1.0, "windSpeed": 8.0, "description": "Accident on KS-7/Exit 224 (I-70) from 110th St/Exit 410 (I-70) to US-24 E - US-40 E - I-70 E - Kansas Tpke E.", "street": "Kansas Tpke", "city": "Kansas City", "state": "KS", "distance": 0.564}, {"id": "A-544068", "lat": 39.68157, "lng": -89.64295, "severity": 3, "startTime": "8/7/2022 9:59", "weatherCondition": "Fair", "temperature": 82.0, "humidity": 76.0, "visibility": 10.0, "windSpeed": 8.0, "description": "Lane blocked due to crash on I-55 Northbound before Exit 88 Lake Shore Dr.", "street": "I-55", "city": "Springfield", "state": "IL", "distance": 0.0}, {"id": "A-5173221", "lat": 30.4527, "lng": -91.18076, "severity": 2, "startTime": "7/15/2022 7:37", "weatherCondition": "Fair", "temperature": 79.0, "humidity": 90.0, "visibility": 10.0, "windSpeed": 3.0, "description": "Slow traffic on I-110 S from Capitol Lake Dr/S 1st St/Exit 1 (I-110) to LA-73/Government St/Exit 1 (I-110) due to accident.", "street": "North St", "city": "Baton Rouge", "state": "LA", "distance": 0.505}, {"id": "A-713809", "lat": 41.91537, "lng": -88.20877, "severity": 2, "startTime": "2/11/2022 8:02", "weatherCondition": "Fair", "temperature": 37.0, "humidity": 86.0, "visibility": 10.0, "windSpeed": 14.0, "description": "Crash on IL-64 North Ave at IL-59.", "street": "N Neltnor Blvd", "city": "West Chicago", "state": "IL", "distance": 0.0}, {"id": "A-4172738", "lat": 32.67261, "lng": -96.98597, "severity": 2, "startTime": "9/6/2022 13:24", "weatherCondition": "Fair", "temperature": 91.0, "humidity": 43.0, "visibility": 10.0, "windSpeed": 5.0, "description": "Stationary traffic on I-20 W from Mountain Creek Pkwy/Exit 458 (I-20) to TX-161/Exit 455 (I-20) due to accident.", "street": "I-20 W", "city": "Grand Prairie", "state": "TX", "distance": 2.536}, {"id": "A-534381", "lat": 32.92725, "lng": -80.39326, "severity": 1, "startTime": "8/17/2022 4:39", "weatherCondition": "Cloudy", "temperature": 73.0, "humidity": 100.0, "visibility": 10.0, "windSpeed": 0.0, "description": "Crash on US-17-ALT at Timber Ln.", "street": "Highway 17A S", "city": "Ridgeville", "state": "SC", "distance": 0.0}, {"id": "A-4816871", "lat": 25.89721, "lng": -80.24518, "severity": 2, "startTime": "39:36.0", "weatherCondition": "Fair", "temperature": 67.0, "humidity": 33.0, "visibility": 10.0, "windSpeed": 9.0, "description": "Slow traffic on FL-916 - FL-9 from NW 136th St to Opa Locka Blvd / NW 136th St due to accident.", "street": "NW 135th St", "city": "Opa Locka", "state": "FL", "distance": 0.115}, {"id": "A-563452", "lat": 29.84271, "lng": -95.38072, "severity": 1, "startTime": "7/18/2022 6:51", "weatherCondition": "Partly Cloudy", "temperature": 78.0, "humidity": 87.0, "visibility": 8.0, "windSpeed": 3.0, "description": "Crash on De Boll St at Meta St.", "street": "Meta St", "city": "Houston", "state": "TX", "distance": 0.0}, {"id": "A-4530333", "lat": 45.90065, "lng": -123.65685, "severity": 4, "startTime": "12/27/2022 11:39", "weatherCondition": "Light Rain / Windy", "temperature": 48.0, "humidity": 89.0, "visibility": 1.0, "windSpeed": 26.0, "description": "Incident on US-26 EB near MM 16 Road closed. Take alternate route.", "street": "Highway 26", "city": "Seaside", "state": "OR", "distance": 0.619}, {"id": "A-4816516", "lat": 40.26742, "lng": -78.86144, "severity": 2, "startTime": "11:00.0", "weatherCondition": "Mostly Cloudy", "temperature": 83.0, "humidity": 39.0, "visibility": 10.0, "windSpeed": 9.0, "description": "Incident on EISENHOWER BLVD near MINE THIRTYSEVEN RD Drive with caution.", "street": "Eisenhower Blvd", "city": "Johnstown", "state": "PA", "distance": 0.56}, {"id": "A-4376863", "lat": 34.03608, "lng": -118.32124, "severity": 4, "startTime": "1/27/2022 23:01", "weatherCondition": "Fair", "temperature": 52.0, "humidity": 83.0, "visibility": 7.0, "windSpeed": 0.0, "description": "Construction on I-10 EB near ARLINGTON AVE Road closed. Take alternate route.", "street": "Rosa Parks Fwy", "city": "Los Angeles", "state": "CA", "distance": 0.245}, {"id": "A-4850476", "lat": 36.37508, "lng": -119.2969, "severity": 4, "startTime": "8/8/2022 12:12", "weatherCondition": "", "temperature": null, "humidity": null, "visibility": null, "windSpeed": null, "description": "Incident on CA-63 NB near VISALIA Road closed. Take alternate route.", "street": "Avenue 322", "city": "Visalia", "state": "CA", "distance": 0.226}, {"id": "A-735884", "lat": 32.92358, "lng": -96.78066, "severity": 3, "startTime": "1/25/2022 6:58", "weatherCondition": "Fair", "temperature": 43.0, "humidity": 66.0, "visibility": 13.0, "windSpeed": 12.0, "description": "Two lanes blocked due to accident on I-635 Eastbound at Park Central Dr.", "street": "Lyndon B Johnson Fwy", "city": "Dallas", "state": "TX", "distance": 0.0}, {"id": "A-549946", "lat": 33.69596, "lng": -117.93662, "severity": 1, "startTime": "8/1/2022 3:15", "weatherCondition": "Fair", "temperature": 72.0, "humidity": 76.0, "visibility": 10.0, "windSpeed": 0.0, "description": "Crash on entry ramp to I-405 from Euclid St Southbound.", "street": "I-405 S", "city": "Fountain Valley", "state": "CA", "distance": 1.6799999475479126}, {"id": "A-632011", "lat": 42.39326, "lng": -71.03901, "severity": 1, "startTime": "5/2/2022 7:46", "weatherCondition": "Cloudy", "temperature": 49.0, "humidity": 80.0, "visibility": 10.0, "windSpeed": 5.0, "description": "Crash on Everett Ave at Arlington St.", "street": "Arlington St", "city": "Chelsea", "state": "MA", "distance": 0.0}, {"id": "A-576022", "lat": 33.5853, "lng": -84.37772, "severity": 4, "startTime": "7/4/2022 14:22", "weatherCondition": "Mostly Cloudy", "temperature": 87.0, "humidity": 63.0, "visibility": 10.0, "windSpeed": 7.0, "description": "Left lane blocked due to crash on I-75 Northbound at Exit 235 US-19 Old Dixie Rd.", "street": "GA-401 N", "city": "Forest Park", "state": "GA", "distance": 0.0}, {"id": "A-4898106", "lat": 42.97649, "lng": -85.67803, "severity": 4, "startTime": "03:04.0", "weatherCondition": "Cloudy", "temperature": 68.0, "humidity": 96.0, "visibility": 10.0, "windSpeed": 9.0, "description": "SB US-131 at I-196", "street": "US-131 S", "city": "Grand Rapids", "state": "MI", "distance": 0.308}, {"id": "A-4761459", "lat": 34.06445, "lng": -118.00003, "severity": 2, "startTime": "10/2/2022 12:19", "weatherCondition": "Partly Cloudy", "temperature": 78.0, "humidity": 50.0, "visibility": 10.0, "windSpeed": 3.0, "description": "Slow traffic on San Gabriel River Fwy N - I-605 N from Valley Blvd (I-605) to Ramona Blvd (I-605) due to accident.", "street": "I-605 N", "city": "Baldwin Park", "state": "CA", "distance": 0.634}, {"id": "A-575424", "lat": 41.47968, "lng": -81.65196, "severity": 3, "startTime": "7/5/2022 8:07", "weatherCondition": "Light Rain", "temperature": 71.0, "humidity": 81.0, "visibility": 7.0, "windSpeed": 13.0, "description": "Two lanes blocked due to crash on I-490 Westbound at 55th St.", "street": "I-490 W", "city": "Cleveland", "state": "OH", "distance": 0.0}, {"id": "A-4078519", "lat": 37.5778, "lng": -122.40247, "severity": 2, "startTime": "38:00.0", "weatherCondition": "Fair", "temperature": 63.0, "humidity": 34.0, "visibility": 10.0, "windSpeed": 15.0, "description": "Slow traffic on I-280 S - Junipero Serra Fwy S - CA-35 S from Trousdale Dr (I-280) to Golf Course Dr/Hayne Rd (I-280) due to accident.", "street": "I-280", "city": "Burlingame", "state": "CA", "distance": 2.38}, {"id": "A-5253155", "lat": 34.22524, "lng": -119.15947, "severity": 2, "startTime": "39:00.0", "weatherCondition": "Fair", "temperature": 49.0, "humidity": 83.0, "visibility": 10.0, "windSpeed": 5.0, "description": "Slow traffic on Ventura Fwy S - US-101 S from CA-232/Vineyard Ave (US-101) to Carmen Dr (US-101) due to accident.", "street": "US-101 S", "city": "Oxnard", "state": "CA", "distance": 5.255}, {"id": "A-4471924", "lat": 38.55927, "lng": -90.40694, "severity": 4, "startTime": "34:43.0", "weatherCondition": "Light Rain", "temperature": 54.0, "humidity": 66.0, "visibility": 10.0, "windSpeed": 5.0, "description": "Incident on I-44 near US-67 Road closed. Take alternate route.", "street": "S Lindbergh Blvd", "city": "St Louis", "state": "MO", "distance": 1.483}, {"id": "A-5419739", "lat": 38.45441, "lng": -90.53445, "severity": 4, "startTime": "11/22/2022 23:01", "weatherCondition": "Fair", "temperature": 30.0, "humidity": 82.0, "visibility": 10.0, "windSpeed": 0.0, "description": "Incident on MO-30 near GRAVOIS AVE Road closed. Take alternate route.", "street": "MO-30", "city": "High Ridge", "state": "MO", "distance": 0.102}, {"id": "A-4417859", "lat": 34.07238, "lng": -118.07551, "severity": 2, "startTime": "4/27/2022 16:40", "weatherCondition": "Fair", "temperature": 69.0, "humidity": 54.0, "visibility": 10.0, "windSpeed": 6.0, "description": "Accident on CA-19/Rosemead Blvd/Flair Dr (I-10) from San Gabriel Blvd (I-10) to I-10 W - San Bernardino Fwy W.", "street": "I-10 W", "city": "Rosemead", "state": "CA", "distance": 0.974}, {"id": "A-4609243", "lat": 33.93925, "lng": -118.36134, "severity": 4, "startTime": "1/10/2022 21:04", "weatherCondition": "Fair", "temperature": 61.0, "humidity": 30.0, "visibility": 10.0, "windSpeed": 0.0, "description": "Closed road from W Century Blvd (S Inglewood Ave) to W Imperial Hwy (Inglewood Ave) due to accident.", "street": "S Inglewood Ave", "city": "Inglewood", "state": "CA", "distance": 0.074}, {"id": "A-603837", "lat": 36.8225, "lng": -76.33244, "severity": 3, "startTime": "6/2/2022 7:14", "weatherCondition": "", "temperature": null, "humidity": null, "visibility": null, "windSpeed": null, "description": "One lane blocked due to crash on I-264 Eastbound at Exit 5 US-17 Frederick Blvd.", "street": "I-264", "city": "Portsmouth", "state": "VA", "distance": 0.0}, {"id": "A-3835205", "lat": 36.91875, "lng": -76.2732, "severity": 4, "startTime": "6/1/2022 14:40", "weatherCondition": "Partly Cloudy", "temperature": 92.0, "humidity": 54.0, "visibility": 10.0, "windSpeed": 5.0, "description": "On I-564 at mile marker 0.3 in the City of Norfolk near Little Creek Road motorists can expect delays due to a multi-vehicle crash. All east lanes are closed.", "street": "I-564 E", "city": "Norfolk", "state": "VA", "distance": 0.077}, {"id": "A-629330", "lat": 35.32163, "lng": -80.85217, "severity": 1, "startTime": "5/4/2022 6:03", "weatherCondition": "Mostly Cloudy", "temperature": 68.0, "humidity": 84.0, "visibility": 10.0, "windSpeed": 7.0, "description": "Lane blocked due to crash on Reames Rd at Broad Valley Ct.", "street": "Reames Rd", "city": "Charlotte", "state": "NC", "distance": 0.0}, {"id": "A-5454942", "lat": 40.72477, "lng": -73.83746, "severity": 2, "startTime": "31:38.0", "weatherCondition": "Fair", "temperature": 85.0, "humidity": 51.0, "visibility": 10.0, "windSpeed": 9.0, "description": "Slow traffic on Grand Central Pkwy E from I-495/Long Island Expy/Exit 10 (Grand Central Pkwy) to Northern State Pkwy (Grand Central Pkwy) due to accident.", "street": "Grand Central Pkwy E", "city": "Forest Hills", "state": "NY", "distance": 6.474}, {"id": "A-602100", "lat": 35.06472, "lng": -80.77009, "severity": 1, "startTime": "6/6/2022 18:27", "weatherCondition": "Fair", "temperature": 83.0, "humidity": 27.0, "visibility": 10.0, "windSpeed": 0.0, "description": "Crash on NC-16 Providence Rd at Mckee Rd.", "street": "Providence Rd", "city": "Charlotte", "state": "NC", "distance": 0.0}, {"id": "A-4470194", "lat": 46.06126, "lng": -84.67919, "severity": 4, "startTime": "3/31/2022 11:22", "weatherCondition": "Light Snow", "temperature": 31.0, "humidity": 100.0, "visibility": 0.5, "windSpeed": 17.0, "description": "Incident on I-75 NB near M-134 Road closed. Take alternate route.", "street": "I-75 N", "city": "Saint Ignace", "state": "MI", "distance": 8.681000000000001}, {"id": "A-5226396", "lat": 38.64471, "lng": -121.27807, "severity": 2, "startTime": "19:00.0", "weatherCondition": "Fair", "temperature": 66.0, "humidity": 52.0, "visibility": 10.0, "windSpeed": 5.0, "description": "Incident on WINDING WAY EB near NEW YORK AVE Drive with caution.", "street": "Winding Way", "city": "Fair Oaks", "state": "CA", "distance": 0.023}, {"id": "A-4152930", "lat": 32.82203, "lng": -109.68766, "severity": 2, "startTime": "09:29.0", "weatherCondition": "Fair", "temperature": 95.0, "humidity": 7.0, "visibility": 10.0, "windSpeed": 16.0, "description": "Incident on E US-70 NB near E COPPER CANYON DR Drive with caution.", "street": "E US Highway 70", "city": "Safford", "state": "AZ", "distance": 0.086}, {"id": "A-5230681", "lat": 39.1657, "lng": -94.62658, "severity": 2, "startTime": "11/1/2022 7:26", "weatherCondition": "Fair", "temperature": 44.0, "humidity": 79.0, "visibility": 9.0, "windSpeed": 0.0, "description": "Incident on I-635 SB near MO-9 Right lane blocked. Expect delays.", "street": "I-635 S", "city": "Riverside", "state": "MO", "distance": 0.084}, {"id": "A-5332048", "lat": 30.69079, "lng": -86.0429, "severity": 4, "startTime": "2/8/2022 5:38", "weatherCondition": "Fair", "temperature": 39.0, "humidity": 89.0, "visibility": 10.0, "windSpeed": 3.0, "description": "Incident on I-10 WB near MM 90 Road closed. Take alternate route.", "street": "FL-8 W", "city": "Defuniak Springs", "state": "FL", "distance": 0.515}, {"id": "A-527096", "lat": 29.73021, "lng": -95.41864, "severity": 3, "startTime": "8/25/2022 10:34", "weatherCondition": "Mostly Cloudy", "temperature": 84.0, "humidity": 72.0, "visibility": 10.0, "windSpeed": 0.0, "description": "Two lanes blocked left hand shoulder blocked and right hand shoulder blocked due to crash on I-69 Southwest Fwy Southbound at Kirby Dr.", "street": "Southwest Fwy", "city": "Houston", "state": "TX", "distance": 0.0}, {"id": "A-611300", "lat": 33.99336, "lng": -118.06916, "severity": 3, "startTime": "5/24/2022 23:51", "weatherCondition": "Cloudy", "temperature": 62.0, "humidity": null, "visibility": 10.0, "windSpeed": 0.0, "description": "HOV lane blocked and #1 lane blocked due to crash on I-605 Northbound at Exit 15 CA-72 Whittier Blvd.", "street": "I-605 N", "city": "Whittier", "state": "CA", "distance": 0.0}, {"id": "A-5012733", "lat": 32.28657, "lng": -96.54514, "severity": 2, "startTime": "43:00.0", "weatherCondition": "Fair", "temperature": 60.0, "humidity": 29.0, "visibility": 10.0, "windSpeed": 12.0, "description": "Stationary traffic on TX-75 S - US-287 S - I-45 S from US-287/Exit 247 (I-45) to FM-1182/Exit 244 (I-45) due to accident.", "street": "I-45", "city": "Ennis", "state": "TX", "distance": 1.81}, {"id": "A-5389766", "lat": 39.42746, "lng": -76.38974, "severity": 4, "startTime": "5/12/2022 15:57", "weatherCondition": "Cloudy", "temperature": 73.0, "humidity": 65.0, "visibility": 10.0, "windSpeed": 6.0, "description": "I-95 SOUTH PAST EXIT 74 MD 152 MOUNTAIN RD (SB) (MM 71.6)", "street": "I-95 S", "city": "Kingsville", "state": "MD", "distance": 0.532}, {"id": "A-5046455", "lat": 33.74759, "lng": -84.71938, "severity": 4, "startTime": "6/25/2022 3:55", "weatherCondition": "Fair", "temperature": 73.0, "humidity": 96.0, "visibility": 10.0, "windSpeed": 0.0, "description": "Incident on I-20 WB near GA-280 Road closed. Take alternate route.", "street": "I-20", "city": "Douglasville", "state": "GA", "distance": 1.963}, {"id": "A-3880132", "lat": 36.15751, "lng": -86.87352, "severity": 2, "startTime": "6/8/2022 16:26", "weatherCondition": "Mostly Cloudy", "temperature": 86.0, "humidity": 55.0, "visibility": 10.0, "windSpeed": 13.0, "description": "Incident on ROBERTSON AVE near CROLEY DR Drive with caution.", "street": "Ries Ave", "city": "Nashville", "state": "TN", "distance": 0.067}, {"id": "A-601118", "lat": 40.67744, "lng": -73.38808, "severity": 1, "startTime": "6/7/2022 8:13", "weatherCondition": "Fair", "temperature": 68.0, "humidity": 68.0, "visibility": 10.0, "windSpeed": 9.0, "description": "Crash on Pleasant View Ct at St Anns Ave.", "street": "St Anns Ave", "city": "Copiague", "state": "NY", "distance": 0.0}, {"id": "A-4818036", "lat": 33.84213, "lng": -84.68705, "severity": 4, "startTime": "5/1/2022 22:15", "weatherCondition": "Fair", "temperature": 71.0, "humidity": 73.0, "visibility": 10.0, "windSpeed": 3.0, "description": "Incident on GA-6 EB near OGLESBY RD Road closed. Take alternate route.", "street": "CH James Pkwy", "city": "Powder Springs", "state": "GA", "distance": 0.032}, {"id": "A-5368958", "lat": 33.74294, "lng": -117.19291, "severity": 2, "startTime": "9/7/2022 16:57", "weatherCondition": "Partly Cloudy", "temperature": 101.0, "humidity": 25.0, "visibility": 10.0, "windSpeed": 14.0, "description": "Incident on ETHANAC RD near CASE RD Expect delays.", "street": "Ethanac Rd", "city": "Perris", "state": "CA", "distance": 0.027000000000000003}, {"id": "A-526698", "lat": 39.25591, "lng": -84.44289, "severity": 3, "startTime": "8/25/2022 17:56", "weatherCondition": "Partly Cloudy", "temperature": 84.0, "humidity": 44.0, "visibility": 10.0, "windSpeed": 8.0, "description": "Left lane blocked due to crash on I-75 Southbound at Exit 14 Glendale Milford Rd.", "street": "I-75", "city": "Cincinnati", "state": "OH", "distance": 0.0}, {"id": "A-657889", "lat": 39.11684, "lng": -84.50037, "severity": 3, "startTime": "4/7/2022 17:09", "weatherCondition": "Mostly Cloudy", "temperature": 53.0, "humidity": 41.0, "visibility": 10.0, "windSpeed": 15.0, "description": "Center lane blocked due to crash on I-71 Southbound after Us-42.", "street": "I-71", "city": "Cincinnati", "state": "OH", "distance": 0.0}, {"id": "A-528520", "lat": 30.24324, "lng": -92.06626, "severity": 1, "startTime": "8/24/2022 6:39", "weatherCondition": "Light Rain", "temperature": 78.0, "humidity": 93.0, "visibility": 6.0, "windSpeed": 5.0, "description": "Crash on Willow St at LA-3184 Ambassador Caffery Pkwy.", "street": "Ambassador Caffery Pkwy", "city": "Scott", "state": "LA", "distance": 0.0}, {"id": "A-535981", "lat": 32.9296, "lng": -80.04456, "severity": 3, "startTime": "8/16/2022 14:29", "weatherCondition": "Mostly Cloudy", "temperature": 86.0, "humidity": 67.0, "visibility": 10.0, "windSpeed": 9.0, "description": "Middle lane blocked due to crash on I-26 Westbound near Exits 209A 209B-A US-52 Rivers Ave.", "street": "209B-A", "city": "Charleston", "state": "SC", "distance": 0.0}, {"id": "A-4382824", "lat": 33.5792, "lng": -112.0947, "severity": 2, "startTime": "1/17/2022 16:34", "weatherCondition": "Fair", "temperature": 67.0, "humidity": 18.0, "visibility": 10.0, "windSpeed": 0.0, "description": "Incident on 17TH AVE near HOUSE 10200 Expect delays.", "street": "W Beryl Ave", "city": "Phoenix", "state": "AZ", "distance": 0.051}, {"id": "A-4076538", "lat": 40.59448, "lng": -75.57632, "severity": 4, "startTime": "9/1/2022 13:36", "weatherCondition": "Fair", "temperature": 82.0, "humidity": 32.0, "visibility": 10.0, "windSpeed": 12.0, "description": "Incident on US-22 WB near TILGHMAN ST Road closed. Take alternate route.", "street": "US-22 W", "city": "Allentown", "state": "PA", "distance": 0.955}, {"id": "A-740587", "lat": 33.42614, "lng": -112.02788, "severity": 3, "startTime": "1/20/2022 15:32", "weatherCondition": "Fair", "temperature": 71.0, "humidity": 22.0, "visibility": 10.0, "windSpeed": 6.0, "description": "HOV lane blocked due to accident on I-10 Westbound near Exit 150B 24th St.", "street": "I-10 E", "city": "Phoenix", "state": "AZ", "distance": 0.0}, {"id": "A-3963036", "lat": 35.55816, "lng": -119.30426, "severity": 4, "startTime": "5/20/2022 6:30", "weatherCondition": "Fair", "temperature": 64.0, "humidity": 35.0, "visibility": 5.0, "windSpeed": 9.0, "description": "Incident on KIMBERLINA RD near POPLAR AVE Road closed. Take alternate route.", "street": "Kimberlina Rd", "city": "Wasco", "state": "CA", "distance": 0.5}, {"id": "A-599364", "lat": 34.85298, "lng": -82.42957, "severity": 1, "startTime": "6/8/2022 18:28", "weatherCondition": "Partly Cloudy", "temperature": 85.0, "humidity": 53.0, "visibility": 10.0, "windSpeed": 13.0, "description": "Crash on Main St at Woodside Ave.", "street": "Woodside Ave", "city": "Greenville", "state": "SC", "distance": 0.0}, {"id": "A-635399", "lat": 39.65575, "lng": -84.15728, "severity": 1, "startTime": "4/28/2022 7:58", "weatherCondition": "Cloudy", "temperature": 39.0, "humidity": 55.0, "visibility": 10.0, "windSpeed": 13.0, "description": "Crash on OH-48 Far Hills Ave at Boundbrook Dr.", "street": "Far Hills Ave", "city": "Dayton", "state": "OH", "distance": 0.0}, {"id": "A-699686", "lat": 42.12906, "lng": -71.22456, "severity": 3, "startTime": "2/23/2022 6:40", "weatherCondition": "Mostly Cloudy", "temperature": 54.0, "humidity": 94.0, "visibility": 10.0, "windSpeed": 6.0, "description": "Left lane blocked due to crash on I-95 Northbound at US-1 Boston Providence Tpke.", "street": "I-95 N", "city": "Sharon", "state": "MA", "distance": 0.0}, {"id": "A-4569733", "lat": 30.17325, "lng": -85.7599, "severity": 2, "startTime": "12/29/2022 0:09", "weatherCondition": "Cloudy", "temperature": 56.0, "humidity": 52.0, "visibility": 10.0, "windSpeed": 7.0, "description": "Incident on THOMAS DR near CRAG RD Drive with caution.", "street": "Thomas Dr", "city": "Panama City", "state": "FL", "distance": 0.1}, {"id": "A-5410146", "lat": 39.01658, "lng": -77.37526, "severity": 4, "startTime": "6/30/2022 0:36", "weatherCondition": "Partly Cloudy", "temperature": 69.0, "humidity": 84.0, "visibility": 10.0, "windSpeed": 0.0, "description": "On VA-7 in the County of Loudoun in the vicinity of Lakeland Dr; Rt. 821E/W (Loudoun County) motorists can expect delays due to a multi-vehicle crash. The east left lane and center lane are closed. Al", "street": "Harry Byrd Hwy", "city": "Sterling", "state": "VA", "distance": 0.02}, {"id": "A-589849", "lat": 34.95537, "lng": -120.48964, "severity": 2, "startTime": "6/17/2022 17:05", "weatherCondition": "Fair / Windy", "temperature": 63.0, "humidity": 56.0, "visibility": 10.0, "windSpeed": 24.0, "description": "Two lanes blocked due to crash on CA-166 Main St Westbound at Black Rd.", "street": "W Main St", "city": "Santa Maria", "state": "CA", "distance": 0.0}, {"id": "A-529301", "lat": 38.01851, "lng": -122.26629, "severity": 3, "startTime": "8/23/2022 8:50", "weatherCondition": "Fair", "temperature": 70.0, "humidity": 65.0, "visibility": 10.0, "windSpeed": 5.0, "description": "Left hand shoulder blocked and #1 lane blocked due to crash on I-80 Westbound before Exit 23 CA-4 .", "street": "I-80 W", "city": "Hercules", "state": "CA", "distance": 0.0}, {"id": "A-579488", "lat": 29.97751, "lng": -95.42198, "severity": 3, "startTime": "6/29/2022 19:12", "weatherCondition": "Thunder in the Vicinity", "temperature": 87.0, "humidity": 63.0, "visibility": 10.0, "windSpeed": 10.0, "description": "Right lane blocked due to crash on I-45 I-45 Southbound at Rankin Rd.", "street": "North Fwy", "city": "Houston", "state": "TX", "distance": 0.0}, {"id": "A-585915", "lat": 32.65954, "lng": -96.8229, "severity": 3, "startTime": "6/22/2022 13:17", "weatherCondition": "Partly Cloudy", "temperature": 96.0, "humidity": 36.0, "visibility": 10.0, "windSpeed": 9.0, "description": "Two lanes blocked due to crash on I-35E Northbound at Camp Wisdom Rd.", "street": "S RL Thornton Fwy", "city": "Dallas", "state": "TX", "distance": 0.0}, {"id": "A-4048692", "lat": 42.20883, "lng": -122.69587, "severity": 2, "startTime": "13:27.0", "weatherCondition": "Cloudy", "temperature": 45.0, "humidity": 80.0, "visibility": 10.0, "windSpeed": 5.0, "description": "A crash has occurred causing no to minimum delays. Use caution.", "street": "I-5", "city": "Ashland", "state": "OR", "distance": 0.237}, {"id": "A-541765", "lat": 35.00226, "lng": -82.0073, "severity": 1, "startTime": "8/9/2022 18:12", "weatherCondition": "Thunder in the Vicinity", "temperature": 82.0, "humidity": 66.0, "visibility": 10.0, "windSpeed": 15.0, "description": "Crash on Springfield Rd at US-176.", "street": "Asheville Hwy", "city": "Boiling Springs", "state": "SC", "distance": 0.0}, {"id": "A-577501", "lat": 34.51534, "lng": -86.90153, "severity": 3, "startTime": "7/1/2022 13:46", "weatherCondition": "Fair", "temperature": 91.0, "humidity": 42.0, "visibility": 10.0, "windSpeed": 3.0, "description": "Left lane blocked due to crash on I-65 Southbound at Exit 334 AL-67.", "street": "I-65", "city": "Decatur", "state": "AL", "distance": 0.0}, {"id": "A-4403600", "lat": 41.78424, "lng": -107.41511, "severity": 4, "startTime": "51:16.0", "weatherCondition": "Fair", "temperature": 69.0, "humidity": 58.0, "visibility": 10.0, "windSpeed": 3.0, "description": "Construction on I-80 EB near RAWLINS Road closed. Take alternate route.", "street": "I-80 E", "city": "Rawlins", "state": "WY", "distance": 0.073}, {"id": "A-5202059", "lat": 40.66481, "lng": -73.80234, "severity": 2, "startTime": "26:15.0", "weatherCondition": "Fair", "temperature": 68.0, "humidity": 87.0, "visibility": 10.0, "windSpeed": 7.0, "description": "NYSDOT - Region 11: Crash and Overturned vehicle on I-678 southbound ramp to Belt System - Southern Parkway (New York) 2 Right lanes of 3 lanes blocked", "street": "Van Wyck Expy", "city": "Jamaica", "state": "NY", "distance": 0.202}, {"id": "A-640152", "lat": 30.00466, "lng": -90.02659, "severity": 3, "startTime": "4/23/2022 7:29", "weatherCondition": "Fair", "temperature": 73.0, "humidity": 73.0, "visibility": 10.0, "windSpeed": 10.0, "description": "Lane blocked due to crash on I-10 Eastbound at Exits 239A 239B Louisa St.", "street": "I-10", "city": "New Orleans", "state": "LA", "distance": 0.0}, {"id": "A-636702", "lat": 40.40189, "lng": -120.63066, "severity": 1, "startTime": "4/27/2022 5:17", "weatherCondition": "Fair", "temperature": 34.0, "humidity": 65.0, "visibility": 10.0, "windSpeed": 10.0, "description": "Crash on CA-36 Main St Eastbound at CR-A27 Riverside Dr.", "street": "Main St", "city": "Susanville", "state": "CA", "distance": 0.0}, {"id": "A-583944", "lat": 42.28018, "lng": -71.01716, "severity": 1, "startTime": "6/24/2022 10:45", "weatherCondition": "Partly Cloudy", "temperature": 71.0, "humidity": 63.0, "visibility": 10.0, "windSpeed": 7.0, "description": "Crash on Quincy Shore Dr at Herbert Rd.", "street": "Quincy Shore Dr", "city": "Quincy", "state": "MA", "distance": 0.0}, {"id": "A-5389234", "lat": 37.89596, "lng": -76.60447, "severity": 4, "startTime": "12/13/2022 14:34", "weatherCondition": "Fair", "temperature": 43.0, "humidity": 51.0, "visibility": 10.0, "windSpeed": 5.0, "description": "On Rt. 612 in the County of Richmond in the vicinity of Luttrellville Ln; Rt. 616N/S (Richmond County) motorists can expect delays due to a vehicle crash. All east lanes are closed. All west lanes are", "street": "Oakland Rd", "city": "Farnham", "state": "VA", "distance": 0.361}, {"id": "A-5394019", "lat": 40.88951, "lng": -74.09631, "severity": 4, "startTime": "44:35.0", "weatherCondition": "Mostly Cloudy", "temperature": 39.0, "humidity": 49.0, "visibility": 10.0, "windSpeed": 14.0, "description": "NJ DOT - STMC: Crash on US 46 westbound West of 5th St (Saddle Brook Twp) All lanes closed", "street": "US Highway 46", "city": "Saddle Brook", "state": "NJ", "distance": 0.14}, {"id": "A-571958", "lat": 32.02936, "lng": -81.22153, "severity": 1, "startTime": "7/8/2022 7:52", "weatherCondition": "Mostly Cloudy", "temperature": 79.0, "humidity": 87.0, "visibility": 10.0, "windSpeed": 5.0, "description": "Crash on US-17 both ways at Cottonvale Rd.", "street": "Cottonvale Rd", "city": "Savannah", "state": "GA", "distance": 0.0}, {"id": "A-5386137", "lat": 38.64895, "lng": -75.59396, "severity": 4, "startTime": "37:00.0", "weatherCondition": "Fair", "temperature": 84.0, "humidity": 41.0, "visibility": 10.0, "windSpeed": 15.0, "description": "Incident on US-13 NB near CONCORD RD Road closed. Take alternate route.", "street": "N Dual Hwy", "city": "Seaford", "state": "DE", "distance": 0.095}, {"id": "A-600967", "lat": 42.3927, "lng": -87.90438, "severity": 2, "startTime": "6/7/2022 11:50", "weatherCondition": "Mostly Cloudy", "temperature": 62.0, "humidity": 80.0, "visibility": 10.0, "windSpeed": 3.0, "description": "Lane blocked due to crash on CR-W27 Delany Rd Northbound at CR-A19 Sunset Ave.", "street": "N Delany Rd", "city": "Gurnee", "state": "IL", "distance": 0.0}, {"id": "A-4595252", "lat": 37.06774, "lng": -121.60016, "severity": 2, "startTime": "6/12/2022 18:37", "weatherCondition": "Cloudy", "temperature": 72.0, "humidity": 60.0, "visibility": 10.0, "windSpeed": 20.0, "description": "Incident on MONTEREY RD near CHURCH AVE Right shoulder closed.", "street": "Church Ave", "city": "San Martin", "state": "CA", "distance": 0.342}, {"id": "A-677696", "lat": 41.906, "lng": -71.0424, "severity": 3, "startTime": "3/14/2022 17:32", "weatherCondition": "Fair", "temperature": 49.0, "humidity": 43.0, "visibility": 10.0, "windSpeed": 13.0, "description": "Left lane closed due to crash on MA-24 Southbound at Exits 20 / US-44 Cape Hwy.", "street": "MA-24 N", "city": "Raynham", "state": "MA", "distance": 0.0}, {"id": "A-5461422", "lat": 43.38446, "lng": -97.99557, "severity": 4, "startTime": "12/14/2022 9:51", "weatherCondition": "Light Snow", "temperature": 30.0, "humidity": 88.0, "visibility": 2.0, "windSpeed": 6.0, "description": "Incident on SD-37 SB near SD-44 Road closed. Take alternate route.", "street": "SD Highway 44", "city": "Parkston", "state": "SD", "distance": 6.006}, {"id": "A-616277", "lat": 33.04189, "lng": -96.77351, "severity": 1, "startTime": "5/20/2022 7:36", "weatherCondition": "Cloudy", "temperature": 77.0, "humidity": 69.0, "visibility": 10.0, "windSpeed": 15.0, "description": "Crash on Parker Rd at Wells Dr.", "street": "W Parker Rd", "city": "Plano", "state": "TX", "distance": 0.0}, {"id": "A-4501129", "lat": 39.04961, "lng": -75.64779, "severity": 4, "startTime": "6/29/2022 8:38", "weatherCondition": "Haze", "temperature": 73.0, "humidity": 61.0, "visibility": 2.0, "windSpeed": 8.0, "description": "Incident on WILLOW GROVE RD near FIVEFOOT PRONG RD Road closed. Take alternate route.", "street": "Willow Grove Rd", "city": "Camden-Wyoming", "state": "DE", "distance": 0.077}, {"id": "A-653542", "lat": 33.02264, "lng": -80.36253, "severity": 2, "startTime": "4/12/2022 8:16", "weatherCondition": "Fair", "temperature": 61.0, "humidity": 100.0, "visibility": 10.0, "windSpeed": 0.0, "description": "Crash on SC-61 at Farm Field Ln.", "street": "Farmfield Ln", "city": "Ridgeville", "state": "SC", "distance": 0.0}, {"id": "A-557977", "lat": 34.84661, "lng": -81.92501, "severity": 1, "startTime": "7/22/2022 16:25", "weatherCondition": "Fair", "temperature": 90.0, "humidity": 49.0, "visibility": 7.0, "windSpeed": 0.0, "description": "Crash on SC-215 Stone Station Rd at Walnut Grove Rd.", "street": "Walnut Grove Rd", "city": "Roebuck", "state": "SC", "distance": 0.0}, {"id": "A-547561", "lat": 37.59526, "lng": -121.87264, "severity": 1, "startTime": "8/3/2022 6:01", "weatherCondition": "Fair", "temperature": 62.0, "humidity": 75.0, "visibility": 10.0, "windSpeed": 3.0, "description": "Right hand shoulder blocked due to crash on I-680 Southbound after Exit 22 Koopman Rd.", "street": "I-680 S", "city": "Sunol", "state": "CA", "distance": 0.0}, {"id": "A-4409325", "lat": 45.37007, "lng": -118.29444, "severity": 2, "startTime": "2/2/2022 9:47", "weatherCondition": "Cloudy", "temperature": 27.0, "humidity": 66.0, "visibility": 10.0, "windSpeed": 6.0, "description": "Slow traffic on Old Oregon Trail Hwy No 6 - I-84 E - US-30 E - Old Oregon Trl from Spring Cr. Rd./Exit 248 (I-84) to OR-244/Exit 252 (I-84) due to accident.", "street": "Old Oregon Trail Hwy No 6", "city": "La Grande", "state": "OR", "distance": 3.324}, {"id": "A-533345", "lat": 28.57855, "lng": -81.37528, "severity": 1, "startTime": "8/18/2022 6:19", "weatherCondition": "Fair", "temperature": 81.0, "humidity": 77.0, "visibility": 10.0, "windSpeed": 0.0, "description": "Right hand shoulder blocked due to crash on I-4 Westbound after Exit 86 Par St.", "street": "I-4", "city": "Orlando", "state": "FL", "distance": 0.0}, {"id": "A-726326", "lat": 38.867, "lng": -77.3187, "severity": 3, "startTime": "2/1/2022 7:01", "weatherCondition": "Fair", "temperature": 18.0, "humidity": 81.0, "visibility": 10.0, "windSpeed": 0.0, "description": "Right lane blocked and right hand shoulder blocked due to accident on I-66 Westbound at Exits 57A 57B US-50 Lee Jackson Memorial Hwy.", "street": "I-66 W", "city": "Fairfax", "state": "VA", "distance": 0.0}, {"id": "A-5402957", "lat": 39.30055, "lng": -94.50994, "severity": 4, "startTime": "1/15/2022 20:47", "weatherCondition": "Cloudy", "temperature": 20.0, "humidity": 85.0, "visibility": 10.0, "windSpeed": 8.0, "description": "Incident on I-435 near MO-W Road closed. Take alternate route.", "street": "I-435", "city": "Kansas City", "state": "MO", "distance": 2.372}, {"id": "A-4845696", "lat": 40.72628, "lng": -74.01166, "severity": 4, "startTime": "2/10/2022 1:51", "weatherCondition": "Fair", "temperature": 39.0, "humidity": 82.0, "visibility": 9.0, "windSpeed": 0.0, "description": "Port Authority NY/NJ: Crash on Holland Tunnel North Tube westbound New York Side (New York) to New Jersey Side (Jersey City) All lanes closed", "street": "Holland Tunl W", "city": "New York", "state": "NY", "distance": 1.071}, {"id": "A-635835", "lat": 32.41013, "lng": -80.75286, "severity": 1, "startTime": "4/27/2022 5:38", "weatherCondition": "Cloudy", "temperature": 69.0, "humidity": 75.0, "visibility": 10.0, "windSpeed": 12.0, "description": "Crash on SC-170 Robert Smalls Pkwy at Castle Rock Rd.", "street": "Robert Smalls Pkwy", "city": "Beaufort", "state": "SC", "distance": 0.0}, {"id": "A-596668", "lat": 34.99142, "lng": -81.97246, "severity": 1, "startTime": "6/10/2022 18:11", "weatherCondition": "Fair", "temperature": 81.0, "humidity": 28.0, "visibility": 10.0, "windSpeed": 0.0, "description": "Lane blocked due to crash on Campus Blvd at Lone Oak Rd.", "street": "Charisma Dr", "city": "Spartanburg", "state": "SC", "distance": 0.0}, {"id": "A-4468367", "lat": 37.57664, "lng": -77.39351, "severity": 2, "startTime": "3/2/2022 16:41", "weatherCondition": "Fair", "temperature": 68.0, "humidity": 27.0, "visibility": 10.0, "windSpeed": 6.0, "description": "Slow traffic from Creighton Rd (N Laburnum Ave) to Richmond Henrico Tpke/Meadowbridge Rd (E Laburnum Ave) due to accident.", "street": "Whitlock Ave", "city": "Richmond", "state": "VA", "distance": 0.181}, {"id": "A-4983116", "lat": 43.59519, "lng": -116.37448, "severity": 2, "startTime": "9/19/2022 17:23", "weatherCondition": "", "temperature": 81.0, "humidity": 26.0, "visibility": 10.0, "windSpeed": 3.0, "description": "Incident on LOCUST GROVE RD NB near I-84 Drive with caution.", "street": "S Locust Grove Rd", "city": "Meridian", "state": "ID", "distance": 0.073}, {"id": "A-4630632", "lat": 26.00856, "lng": -80.2137, "severity": 4, "startTime": "11/6/2022 11:27", "weatherCondition": "Light Rain", "temperature": 80.0, "humidity": 76.0, "visibility": 10.0, "windSpeed": 20.0, "description": "FL-91 S - Florida's Tpke S is closed from FL-818/Griffin Rd/Exit 53 South (Florida's Tpke) to FL-820/Exit 49 (Florida's Tpke) due to accident.", "street": "Florida's Tpke S", "city": "Hollywood", "state": "FL", "distance": 0.188}, {"id": "A-4859518", "lat": 34.18587, "lng": -117.43904, "severity": 2, "startTime": "6/21/2022 11:05", "weatherCondition": "Fair", "temperature": 85.0, "humidity": 29.0, "visibility": 10.0, "windSpeed": 8.0, "description": "Incident on LYTLE CREEK RD SB near SIERRA AVE Right shoulder closed.", "street": "Sierra Ave", "city": "Fontana", "state": "CA", "distance": 0.126}, {"id": "A-755072", "lat": 33.24992, "lng": -87.13457, "severity": 3, "startTime": "1/4/2022 17:09", "weatherCondition": "Fair", "temperature": 51.0, "humidity": 61.0, "visibility": 10.0, "windSpeed": 6.0, "description": "Lane blocked due to accident on I-20 Westbound near Exit 97 US-11.", "street": "Highway 11 N", "city": "Mc Calla", "state": "AL", "distance": 0.0}, {"id": "A-4830177", "lat": 32.39119, "lng": -111.11974, "severity": 2, "startTime": "9/28/2022 13:24", "weatherCondition": "Fair", "temperature": 91.0, "humidity": 26.0, "visibility": 10.0, "windSpeed": 6.0, "description": "Crash on the right shoulder on I-10 Eastbound near Twin Peaks Rd (MP 244)", "street": "I-10", "city": "Marana", "state": "AZ", "distance": 0.465}, {"id": "A-525413", "lat": 26.61785, "lng": -81.6164, "severity": 1, "startTime": "8/26/2022 8:04", "weatherCondition": "Fair", "temperature": 79.0, "humidity": 94.0, "visibility": 10.0, "windSpeed": 6.0, "description": "Crash on Maple Ave at 5th St.", "street": "E 5th St", "city": "Lehigh Acres", "state": "FL", "distance": 0.0}, {"id": "A-4762861", "lat": 35.12134, "lng": -118.34883, "severity": 4, "startTime": "10/12/2022 4:10", "weatherCondition": "Fair", "temperature": 48.0, "humidity": 62.0, "visibility": 9.0, "windSpeed": 0.0, "description": "Incident on TEHACHAPI BLVD EB near TEHACHAPI WILLOW SPRINGS Road closed. Take alternate route.", "street": "E Tehachapi Blvd", "city": "Tehachapi", "state": "CA", "distance": 0.516}, {"id": "A-753308", "lat": 34.2216, "lng": -117.40076, "severity": 3, "startTime": "1/9/2022 2:48", "weatherCondition": "Fair", "temperature": 41.0, "humidity": 70.0, "visibility": 10.0, "windSpeed": 3.0, "description": "Lane blocked due to accident on I-215 Northbound at Exits 54 / Devore Rd.", "street": "Barstow Fwy N", "city": "San Bernardino", "state": "CA", "distance": 0.0}, {"id": "A-603776", "lat": 39.18685, "lng": -88.5045, "severity": 3, "startTime": "6/2/2022 6:44", "weatherCondition": "Fair", "temperature": 63.0, "humidity": 94.0, "visibility": 10.0, "windSpeed": 0.0, "description": "Lane blocked due to crash on I-57 Northbound at Exit 163 I-70.", "street": "", "city": "Effingham", "state": "IL", "distance": 0.0}, {"id": "A-5344005", "lat": 34.64845, "lng": -78.54828, "severity": 2, "startTime": "5/30/2022 22:34", "weatherCondition": "Fair", "temperature": 75.0, "humidity": 76.0, "visibility": 10.0, "windSpeed": 6.0, "description": "A lane is closed.", "street": "US Highway 701 N", "city": "Elizabethtown", "state": "NC", "distance": 0.561}, {"id": "A-675280", "lat": 40.68624, "lng": -74.00029, "severity": 3, "startTime": "3/16/2022 11:41", "weatherCondition": "Fair", "temperature": 61.0, "humidity": 41.0, "visibility": 10.0, "windSpeed": 0.0, "description": "Left lane blocked due to crash on I-278 Brooklyn Queens Expy Eastbound at Exit 26 / Kane St.", "street": "Brooklyn Queens Expy", "city": "Brooklyn", "state": "NY", "distance": 0.0}, {"id": "A-4101041", "lat": 33.58736, "lng": -84.38293, "severity": 4, "startTime": "05:00.0", "weatherCondition": "Partly Cloudy", "temperature": 49.0, "humidity": 39.0, "visibility": 10.0, "windSpeed": 8.0, "description": "Incident on I-75 SB near TARA BLVD Road closed. Take alternate route.", "street": "I-75", "city": "Jonesboro", "state": "GA", "distance": 0.667}, {"id": "A-620176", "lat": 30.54058, "lng": -91.19091, "severity": 1, "startTime": "5/17/2022 7:31", "weatherCondition": "Cloudy", "temperature": 75.0, "humidity": 94.0, "visibility": 6.0, "windSpeed": 3.0, "description": "Crash on US-61 Scenic Hwy at Blount Rd.", "street": "Scenic Hwy", "city": "Baton Rouge", "state": "LA", "distance": 0.0}, {"id": "A-5019780", "lat": 34.67756, "lng": -84.47847, "severity": 4, "startTime": "9/6/2022 17:17", "weatherCondition": "Fair", "temperature": 83.0, "humidity": 65.0, "visibility": 10.0, "windSpeed": 0.0, "description": "Incident on GA-515 SB near GA-136 Road closed. Take alternate route.", "street": "Highway 515 N", "city": "Ellijay", "state": "GA", "distance": 0.029}, {"id": "A-652320", "lat": 33.46173, "lng": -112.10886, "severity": 3, "startTime": "4/11/2022 21:28", "weatherCondition": "Fair", "temperature": 77.0, "humidity": 17.0, "visibility": 10.0, "windSpeed": 14.0, "description": "Right hand shoulder blocked due to crash on I-17 Southbound at Exit 200 I-10.", "street": "I-10", "city": "Phoenix", "state": "AZ", "distance": 0.0}, {"id": "A-529143", "lat": 32.65388, "lng": -96.7133, "severity": 4, "startTime": "8/23/2022 4:06", "weatherCondition": "Cloudy", "temperature": 73.0, "humidity": 95.0, "visibility": 10.0, "windSpeed": 3.0, "description": "Main roadway closed due to crash on I-45 Northbound from Exit 274 Dowdy Ferry Rd to Exit 275 Millers Ferry Rd. Detour in operation - svrd.", "street": "I-45 S", "city": "Hutchins", "state": "TX", "distance": 2.0299999713897705}, {"id": "A-4250808", "lat": 28.42055, "lng": -81.40463, "severity": 2, "startTime": "5/17/2022 10:06", "weatherCondition": "Partly Cloudy", "temperature": 81.0, "humidity": 69.0, "visibility": 10.0, "windSpeed": 8.0, "description": "Slow traffic on US-92 E - US-17 N - US-441 N from Caroni Dr to American Eagle Way due to accident.", "street": "S Orange Blossom Trl", "city": "Orlando", "state": "FL", "distance": 0.07}, {"id": "A-716277", "lat": 41.47767, "lng": -81.69299, "severity": 3, "startTime": "2/9/2022 12:52", "weatherCondition": "Fair", "temperature": 45.0, "humidity": 53.0, "visibility": 10.0, "windSpeed": 15.0, "description": "Center lane blocked due to crash on I-90 Westbound at Exit 170B / I-490 Exit 1A.", "street": "I-90", "city": "Cleveland", "state": "OH", "distance": 0.0}, {"id": "A-5108639", "lat": 42.46494, "lng": -123.32348, "severity": 2, "startTime": "2/17/2022 17:11", "weatherCondition": "Fair", "temperature": 44.0, "humidity": 63.0, "visibility": 10.0, "windSpeed": 6.0, "description": "A crash has occurred causing no to minimum delays. Use caution.", "street": "I-5 N", "city": "Grants Pass", "state": "OR", "distance": 2.813}, {"id": "A-520137", "lat": 40.00948, "lng": -82.66194, "severity": 1, "startTime": "9/1/2022 7:22", "weatherCondition": "Fair", "temperature": 58.0, "humidity": 90.0, "visibility": 8.0, "windSpeed": 0.0, "description": "Crash on Poppleton Pl at Deansway Dr.", "street": "Deansway Dr", "city": "Pataskala", "state": "OH", "distance": 0.0}, {"id": "A-5238243", "lat": 38.1051, "lng": -103.12451, "severity": 4, "startTime": "8/14/2022 8:04", "weatherCondition": "Fair", "temperature": 72.0, "humidity": 51.0, "visibility": 10.0, "windSpeed": 9.0, "description": "Between County Road 16 and County Road 17 (3 miles east of the Las Animas area) at Mile Point 406. Road closed expect delays due to a crash.", "street": "County Road 16", "city": "Las Animas", "state": "CO", "distance": 0.469}, {"id": "A-604789", "lat": 34.86252, "lng": -82.50418, "severity": 1, "startTime": "6/1/2022 12:52", "weatherCondition": "Partly Cloudy", "temperature": 90.0, "humidity": 46.0, "visibility": 10.0, "windSpeed": 3.0, "description": "Lane blocked due to crash on Pistol Club Rd at Old Vinland School Rd.", "street": "Pistol Club Rd", "city": "Easley", "state": "SC", "distance": 0.0}, {"id": "A-5243831", "lat": 45.79102, "lng": -108.4772, "severity": 4, "startTime": "7/1/2022 15:17", "weatherCondition": "Fair", "temperature": 83.0, "humidity": 26.0, "visibility": 10.0, "windSpeed": 5.0, "description": "Incident on I-90 WB near EXIT 452 Road closed. Take alternate route.", "street": "I-90 W", "city": "Billings", "state": "MT", "distance": 1.27}, {"id": "A-614855", "lat": 39.43793, "lng": -76.63422, "severity": 4, "startTime": "5/22/2022 8:04", "weatherCondition": "", "temperature": null, "humidity": null, "visibility": null, "windSpeed": null, "description": "Two lanes blocked due to crash on I-83 Southbound from I-83 Exit 17 / Padonia Rd to I-83 Exits 16 / Timonium Rd.", "street": "W Timonium Rd", "city": "Lutherville Timonium", "state": "MD", "distance": 2.200000047683716}, {"id": "A-753145", "lat": 30.1752, "lng": -90.88393, "severity": 3, "startTime": "1/10/2022 5:18", "weatherCondition": "Cloudy", "temperature": 47.0, "humidity": 83.0, "visibility": 10.0, "windSpeed": 14.0, "description": "Right lane blocked due to accident on I-10 Westbound after Exit 182 / LA-22 .", "street": "I-10", "city": "Gonzales", "state": "LA", "distance": 0.0}, {"id": "A-553846", "lat": 42.29201, "lng": -71.09585, "severity": 1, "startTime": "7/27/2022 17:27", "weatherCondition": "Fair", "temperature": 85.0, "humidity": 32.0, "visibility": 10.0, "windSpeed": 12.0, "description": "Crash on MA-203 Morton St both ways at American Legion Hwy.", "street": "American Legion Hwy", "city": "Roslindale", "state": "MA", "distance": 0.0}, {"id": "A-4414337", "lat": 38.88258, "lng": -77.02211, "severity": 2, "startTime": "4/28/2022 13:40", "weatherCondition": "Fair", "temperature": 56.0, "humidity": 30.0, "visibility": 10.0, "windSpeed": 16.0, "description": "Incident on I-395 SB near I-395 Drive with caution.", "street": "I-395", "city": "Washington", "state": "DC", "distance": 0.34700000000000003}, {"id": "A-565377", "lat": 42.67634, "lng": -84.49474, "severity": 4, "startTime": "7/15/2022 13:39", "weatherCondition": "Fair", "temperature": 76.0, "humidity": 51.0, "visibility": 10.0, "windSpeed": 9.0, "description": "Main roadway closed and right hand shoulder closed due to crash on I-96 Westbound between Exit 110 Okemos Rd and Exit 106A US-127. Traffic getting by on the shoulder.", "street": "I-96 W", "city": "Holt", "state": "MI", "distance": 5.050000190734863}, {"id": "A-5221249", "lat": 28.85372, "lng": -82.2077, "severity": 4, "startTime": "8/9/2022 7:15", "weatherCondition": "Fair", "temperature": 75.0, "humidity": 100.0, "visibility": 7.0, "windSpeed": 0.0, "description": "Incident on SR-44 EB near CR-247 Road closed. Take alternate route.", "street": "W State Road 44", "city": "Lake Panasoffkee", "state": "FL", "distance": 0.037000000000000005}, {"id": "A-516123", "lat": 32.83086, "lng": -117.14163, "severity": 1, "startTime": "9/5/2022 19:36", "weatherCondition": "Fair", "temperature": 78.0, "humidity": 68.0, "visibility": 10.0, "windSpeed": 6.0, "description": "Crash on CA-163 Northbound at Clairemont Mesa Blvd.", "street": "CA-163", "city": "San Diego", "state": "CA", "distance": 0.0}, {"id": "A-4588059", "lat": 37.5949, "lng": -122.36843, "severity": 2, "startTime": "07:00.0", "weatherCondition": "Fair", "temperature": 61.0, "humidity": 83.0, "visibility": 10.0, "windSpeed": 14.0, "description": "Incident on US-101 NB near MILLBRAE AVE Road closed. Take alternate route.", "street": "Bayshore Fwy N", "city": "Burlingame", "state": "CA", "distance": 0.544}, {"id": "A-691196", "lat": 31.23398, "lng": -85.4518, "severity": 2, "startTime": "3/2/2022 16:48", "weatherCondition": "Fair", "temperature": 75.0, "humidity": 19.0, "visibility": 10.0, "windSpeed": 5.0, "description": "Lane blocked due to crash on US-84 Main St Eastbound at Buckingham Dr.", "street": "N Shady Ln", "city": "Dothan", "state": "AL", "distance": 0.0}, {"id": "A-603593", "lat": 30.49052, "lng": -91.15633, "severity": 1, "startTime": "6/2/2022 8:37", "weatherCondition": "Fair", "temperature": 81.0, "humidity": 79.0, "visibility": 10.0, "windSpeed": 5.0, "description": "Crash on LA-67 Plank Rd near Public Dr.", "street": "Private St", "city": "Baton Rouge", "state": "LA", "distance": 0.0}, {"id": "A-719810", "lat": 33.49819, "lng": -80.84004, "severity": 2, "startTime": "2/7/2022 6:33", "weatherCondition": "Cloudy", "temperature": 38.0, "humidity": 93.0, "visibility": 10.0, "windSpeed": 10.0, "description": "Accident on US-601-TRUCK Whittaker Pkwy at SC-33 Russell St.", "street": "Russell St", "city": "Orangeburg", "state": "SC", "distance": 0.0}, {"id": "A-655486", "lat": 34.22675, "lng": -118.38769, "severity": 3, "startTime": "4/9/2022 13:40", "weatherCondition": "Fair", "temperature": 84.0, "humidity": 35.0, "visibility": 10.0, "windSpeed": 10.0, "description": "Crash on I-5 Northbound at Exit 152 Tuxford St.", "street": "Lankershim Blvd", "city": "Sun Valley", "state": "CA", "distance": 0.0}, {"id": "A-4447442", "lat": 27.74836, "lng": -82.68145, "severity": 2, "startTime": "6/2/2022 13:43", "weatherCondition": "Fair", "temperature": 87.0, "humidity": 61.0, "visibility": 10.0, "windSpeed": 9.0, "description": "Incident on 22ND AVE S near 35TH ST S Drive with caution.", "street": "22nd Ave S", "city": "St Petersburg", "state": "FL", "distance": 0.019}, {"id": "A-610766", "lat": 32.86779, "lng": -96.68304, "severity": 1, "startTime": "5/26/2022 4:05", "weatherCondition": "Mostly Cloudy", "temperature": 59.0, "humidity": 75.0, "visibility": 10.0, "windSpeed": 0.0, "description": "Crash on Jupiter Rd at Prelude Dr.", "street": "Jupiter Rd", "city": "Dallas", "state": "TX", "distance": 0.0}, {"id": "A-4450885", "lat": 39.06361, "lng": -94.50025, "severity": 4, "startTime": "45:30.0", "weatherCondition": "Fair", "temperature": 36.0, "humidity": 44.0, "visibility": 10.0, "windSpeed": 16.0, "description": "Construction on I-70 EB near MANCHESTER TRFWY Use alternate exit ramp.", "street": "I-70 E", "city": "Kansas City", "state": "MO", "distance": 0.077}, {"id": "A-522673", "lat": 34.02496, "lng": -117.73133, "severity": 1, "startTime": "8/30/2022 5:21", "weatherCondition": "Fair", "temperature": 68.0, "humidity": 78.0, "visibility": 10.0, "windSpeed": 0.0, "description": "Right hand shoulder blocked due to crash on CA-60 Westbound before Exit 30 Reservoir St.", "street": "CA-60 E", "city": "Pomona", "state": "CA", "distance": 0.0}, {"id": "A-4978439", "lat": 36.96691, "lng": -119.79395, "severity": 2, "startTime": "2/11/2022 21:56", "weatherCondition": "Fair", "temperature": 57.0, "humidity": 69.0, "visibility": 7.0, "windSpeed": 0.0, "description": "Stationary traffic on CA-41 from Avenue 12 (CA-41) to CA-145 (CA-41) due to accident.", "street": "Highway 41", "city": "Madera", "state": "CA", "distance": 0.635}, {"id": "A-552781", "lat": 35.35687, "lng": -97.53002, "severity": 1, "startTime": "7/28/2022 11:10", "weatherCondition": "Cloudy", "temperature": 80.0, "humidity": 71.0, "visibility": 10.0, "windSpeed": 9.0, "description": "Crash on Western Ave at Jeary Dr.", "street": "Jeary Dr", "city": "Oklahoma City", "state": "OK", "distance": 0.0}, {"id": "A-681377", "lat": 25.78706, "lng": -80.20052, "severity": 3, "startTime": "3/10/2022 19:47", "weatherCondition": "Mostly Cloudy", "temperature": 78.0, "humidity": 87.0, "visibility": 10.0, "windSpeed": 7.0, "description": "Lane blocked due to crash on I-95 Northbound at Exits 2D 3A 3B FL-836-TOLL.", "street": "NW 13th St", "city": "Miami", "state": "FL", "distance": 0.0}, {"id": "A-5325294", "lat": 36.23882, "lng": -86.63032, "severity": 2, "startTime": "09:53.0", "weatherCondition": "Fair", "temperature": 38.0, "humidity": 28.0, "visibility": 10.0, "windSpeed": 5.0, "description": "Incident on PITTS AVE near OLD HICKORY BLVD Expect delays.", "street": "Pitts Ave", "city": "Old Hickory", "state": "TN", "distance": 0.01}, {"id": "A-4476572", "lat": 29.80466, "lng": -95.56352, "severity": 2, "startTime": "4/13/2022 14:44", "weatherCondition": "Light Rain", "temperature": 80.0, "humidity": 79.0, "visibility": 9.0, "windSpeed": 15.0, "description": "Stationary traffic on TX-8 Beltway N - W Sam Houston Tollway N from Westview Dr (Sam Houston Tollway) to West Rd (Sam Houston Tollway) due to accident.", "street": "W Sam Houston Tollway N", "city": "Houston", "state": "TX", "distance": 6.835}, {"id": "A-637687", "lat": 32.73802, "lng": -97.45508, "severity": 3, "startTime": "4/26/2022 9:24", "weatherCondition": "Partly Cloudy", "temperature": 62.0, "humidity": 52.0, "visibility": 10.0, "windSpeed": 9.0, "description": "Left lane blocked due to crash on I-30 Westbound at Exit 7A / Cherry Lane.", "street": "I-30", "city": "Fort Worth", "state": "TX", "distance": 0.0}, {"id": "A-549908", "lat": 42.10277, "lng": -70.95657, "severity": 1, "startTime": "8/1/2022 7:45", "weatherCondition": "Partly Cloudy", "temperature": 75.0, "humidity": 76.0, "visibility": 10.0, "windSpeed": 8.0, "description": "Crash on MA-123 Brockton Ave at Barton St.", "street": "Brockton Ave", "city": "Abington", "state": "MA", "distance": 0.0}, {"id": "A-3971194", "lat": 41.81688, "lng": -75.88287, "severity": 4, "startTime": "10/2/2022 8:49", "weatherCondition": "Cloudy", "temperature": 47.0, "humidity": 86.0, "visibility": 10.0, "windSpeed": 12.0, "description": "Incident on PA-29 NB near CANTONE RD Road closed. Take alternate route.", "street": "PA-29", "city": "Montrose", "state": "PA", "distance": 0.127}, {"id": "A-5386083", "lat": 35.34505, "lng": -82.43477, "severity": 2, "startTime": "54:00.0", "weatherCondition": "Fair", "temperature": 70.0, "humidity": 51.0, "visibility": 10.0, "windSpeed": 13.0, "description": "A lane is closed near US 64 Chimney Rock Road.", "street": "Chimney Rock Rd", "city": "Hendersonville", "state": "NC", "distance": 0.077}, {"id": "A-4917076", "lat": 42.27124, "lng": -84.98422, "severity": 4, "startTime": "09:32.0", "weatherCondition": "Fog", "temperature": 55.0, "humidity": 99.0, "visibility": 0.75, "windSpeed": 0.0, "description": "WB BUS I-94 (Michigan Ave) at West Dr (M-227)", "street": "W Michigan Ave", "city": "Marshall", "state": "MI", "distance": 0.023}, {"id": "A-624130", "lat": 28.14177, "lng": -82.49847, "severity": 1, "startTime": "5/12/2022 7:22", "weatherCondition": "Fair", "temperature": 61.0, "humidity": 100.0, "visibility": 10.0, "windSpeed": 0.0, "description": "Crash on FL-597 Dale Mabry Hwy at Cheval Blvd.", "street": "N Dale Mabry Hwy", "city": "Lutz", "state": "FL", "distance": 0.0}, {"id": "A-589995", "lat": 39.76127, "lng": -84.20609, "severity": 1, "startTime": "6/17/2022 19:38", "weatherCondition": "Fair", "temperature": 82.0, "humidity": 30.0, "visibility": 10.0, "windSpeed": 13.0, "description": "Crash on Riverview Ave at Edwin C Moses Blvd.", "street": "N Edwin C Moses Blvd", "city": "Dayton", "state": "OH", "distance": 0.0}, {"id": "A-568137", "lat": 40.73034, "lng": -73.198, "severity": 1, "startTime": "7/13/2022 7:26", "weatherCondition": "Mostly Cloudy", "temperature": 76.0, "humidity": 82.0, "visibility": 10.0, "windSpeed": 5.0, "description": "Crash on Irish Ln at NY-27A Main St.", "street": "W Main St", "city": "East Islip", "state": "NY", "distance": 0.0}, {"id": "A-701883", "lat": 45.51516, "lng": -122.68845, "severity": 3, "startTime": "2/22/2022 4:21", "weatherCondition": "Partly Cloudy", "temperature": 35.0, "humidity": 52.0, "visibility": 10.0, "windSpeed": 17.0, "description": "Right lane blocked and shoulder blocked due to crash on I-405 Southbound at Exit 2A 14th Ave.", "street": "SW 13th Ave", "city": "Portland", "state": "OR", "distance": 0.0}, {"id": "A-4928529", "lat": 34.00142, "lng": -117.84346, "severity": 2, "startTime": "57:12.0", "weatherCondition": "Mostly Cloudy", "temperature": 63.0, "humidity": 48.0, "visibility": 10.0, "windSpeed": 7.0, "description": "Stationary traffic from East San Gabriel Valley to CA-60 W due to accident.", "street": "CA-60 W", "city": "Walnut", "state": "CA", "distance": 0.101}, {"id": "A-618205", "lat": 34.65765, "lng": -82.96105, "severity": 1, "startTime": "5/18/2022 16:21", "weatherCondition": "Fair", "temperature": 84.0, "humidity": 35.0, "visibility": 10.0, "windSpeed": 6.0, "description": "Crash on Wells Hwy at Wilson Dr.", "street": "Wells Hwy", "city": "Seneca", "state": "SC", "distance": 0.0}, {"id": "A-5425560", "lat": 34.15086, "lng": -118.08995, "severity": 2, "startTime": "06:00.0", "weatherCondition": "", "temperature": null, "humidity": null, "visibility": null, "windSpeed": null, "description": "Accident on N Sierra Madre Blvd/San Gabriel Blvd (I-210) from Madre St (I-210) to I-210 E - Foothill Fwy E.", "street": "I-210", "city": "Pasadena", "state": "CA", "distance": 0.247}, {"id": "A-4724282", "lat": 40.387, "lng": -78.76632, "severity": 2, "startTime": "4/15/2022 22:26", "weatherCondition": "Fair", "temperature": 59.0, "humidity": 18.0, "visibility": 10.0, "windSpeed": 9.0, "description": "Incident on US-219 SB near PA-53 Drive with caution.", "street": "US-219", "city": "Summerhill", "state": "PA", "distance": 1.171}, {"id": "A-4239081", "lat": 36.7268, "lng": -77.52681, "severity": 4, "startTime": "19:34.0", "weatherCondition": "Cloudy", "temperature": 71.0, "humidity": 91.0, "visibility": 10.0, "windSpeed": 0.0, "description": "On I-95 at mile marker 13 in the County of Greensville motorists can expect delays due to a vehicle crash. All south lanes are closed.", "street": "I-95 S", "city": "Emporia", "state": "VA", "distance": 0.233}, {"id": "A-4122182", "lat": 40.04146, "lng": -76.32516, "severity": 4, "startTime": "4/30/2022 21:29", "weatherCondition": "Fair", "temperature": 56.0, "humidity": 27.0, "visibility": 10.0, "windSpeed": 0.0, "description": "PA-23 is closed from US-222/PA-272/N Prince St (W Walnut St/W Chestnut St/PA-23) to PA-741/Rohrerstown Rd (Marietta Pike/Marietta Ave/PA-23) due to accident.", "street": "Race Ave", "city": "Lancaster", "state": "PA", "distance": 0.215}, {"id": "A-5241294", "lat": 38.20346, "lng": -121.87264, "severity": 2, "startTime": "6/29/2022 21:34", "weatherCondition": "Fair / Windy", "temperature": 57.0, "humidity": 80.0, "visibility": 10.0, "windSpeed": 26.0, "description": "Incident on CA-12 WB near WESTERN RAILWAY MUSEUM Drive with caution.", "street": "Rio Vista Rd", "city": "Suisun City", "state": "CA", "distance": 0.079}, {"id": "A-562650", "lat": 32.92587, "lng": -96.83176, "severity": 3, "startTime": "7/18/2022 19:20", "weatherCondition": "Fair", "temperature": 102.0, "humidity": 22.0, "visibility": 10.0, "windSpeed": 12.0, "description": "Two lanes blocked due to crash on I-635 Eastbound at Welch Rd.", "street": "I-635 Express Toll", "city": "Dallas", "state": "TX", "distance": 0.0}, {"id": "A-569471", "lat": 40.74707, "lng": -73.71189, "severity": 1, "startTime": "7/11/2022 23:52", "weatherCondition": "Fair", "temperature": 71.0, "humidity": 70.0, "visibility": 10.0, "windSpeed": 14.0, "description": "Multi-vehicle crash on Union Tpke at 260th St.", "street": "260th St", "city": "Glen Oaks", "state": "NY", "distance": 0.0}, {"id": "A-3976693", "lat": 33.17619, "lng": -83.28512, "severity": 4, "startTime": "45:00.0", "weatherCondition": "Fair", "temperature": 75.0, "humidity": 94.0, "visibility": 10.0, "windSpeed": 0.0, "description": "Incident on US-441 NB near SPORTSMAN CLUB RD Road closed. Take alternate route.", "street": "N Columbia St", "city": "Milledgeville", "state": "GA", "distance": 0.188}, {"id": "A-3864849", "lat": 40.41082, "lng": -74.44877, "severity": 2, "startTime": "11/22/2022 13:18", "weatherCondition": "Fair", "temperature": 50.0, "humidity": 35.0, "visibility": 10.0, "windSpeed": 9.0, "description": "NJ Turnpike Auth.: Crash on New Jersey Turnpike inner roadway southbound North of Interchange 8A - NJ 32 (East Brunswick Twp) right lane blocked", "street": "New Jersey Tpke N", "city": "East Brunswick", "state": "NJ", "distance": 1.104}, {"id": "A-4036577", "lat": 27.13167, "lng": -80.35344, "severity": 4, "startTime": "21:00.0", "weatherCondition": "Fair", "temperature": 72.0, "humidity": 83.0, "visibility": 10.0, "windSpeed": 6.0, "description": "Incident on I-95 NB near EXIT 110 Road closed. Take alternate route.", "street": "I-95 N", "city": "Palm City", "state": "FL", "distance": 2.707}, {"id": "A-5180012", "lat": 39.30783, "lng": -76.75927, "severity": 2, "startTime": "6/27/2022 15:28", "weatherCondition": "", "temperature": null, "humidity": null, "visibility": null, "windSpeed": null, "description": "Incident on I-70 EB near EXIT 91A Drive with caution.", "street": "I-70 E", "city": "Catonsville", "state": "MD", "distance": 0.8029999999999999}, {"id": "A-690808", "lat": 32.7035, "lng": -97.3208, "severity": 3, "startTime": "3/3/2022 5:36", "weatherCondition": "Partly Cloudy", "temperature": 48.0, "humidity": 58.0, "visibility": 8.0, "windSpeed": 0.0, "description": "Two lanes blocked and shoulder blocked due to crash on I-35W Southbound at Berry St.", "street": "South Fwy", "city": "Fort Worth", "state": "TX", "distance": 0.0}, {"id": "A-720388", "lat": 33.54995, "lng": -112.11248, "severity": 3, "startTime": "2/6/2022 12:15", "weatherCondition": "Fair", "temperature": 62.0, "humidity": 13.0, "visibility": 10.0, "windSpeed": 6.0, "description": "Right lane blocked due to accident on I-17 Northbound near Exit 206 / Northern Ave.", "street": "Black Canyon Fwy S", "city": "Phoenix", "state": "AZ", "distance": 0.0}, {"id": "A-549000", "lat": 42.35097, "lng": -71.06684, "severity": 1, "startTime": "8/2/2022 4:48", "weatherCondition": "Fair", "temperature": 70.0, "humidity": 87.0, "visibility": 10.0, "windSpeed": 9.0, "description": "Crash on MA-28 Stuart St at Charles St.", "street": "Stuart St", "city": "Boston", "state": "MA", "distance": 0.0}, {"id": "A-631068", "lat": 33.45467, "lng": -112.32389, "severity": 1, "startTime": "5/2/2022 15:31", "weatherCondition": "Fair", "temperature": 90.0, "humidity": 14.0, "visibility": 10.0, "windSpeed": 10.0, "description": "Crash on Fairway Dr at Garfield St.", "street": "W Garfield St", "city": "Avondale", "state": "AZ", "distance": 0.0}, {"id": "A-4734897", "lat": 28.77111, "lng": -96.45806, "severity": 4, "startTime": "34:00.0", "weatherCondition": "Cloudy", "temperature": 53.0, "humidity": 80.0, "visibility": 10.0, "windSpeed": 3.0, "description": "Incident on TX-172 NB near TX-35 Road closed. Take alternate route.", "street": "TX-172", "city": "Lolita", "state": "TX", "distance": 0.922}, {"id": "A-537089", "lat": 40.53323, "lng": -74.3764, "severity": 3, "startTime": "8/15/2022 10:01", "weatherCondition": "Fair", "temperature": 78.0, "humidity": 40.0, "visibility": 10.0, "windSpeed": 0.0, "description": "Right lane blocked due to crash on I-287 Northbound near Exits 2A 2B NJ-27 Lincoln Hwy.", "street": "I-287 S", "city": "Edison", "state": "NJ", "distance": 0.0}, {"id": "A-4858782", "lat": 36.74496, "lng": -119.82072, "severity": 4, "startTime": "12/26/2022 23:05", "weatherCondition": "Mostly Cloudy", "temperature": 48.0, "humidity": 96.0, "visibility": 6.0, "windSpeed": 13.0, "description": "CA-99 S is closed from Belmont Ave (CA-99) to CA-180 (CA-99) due to accident.", "street": "CA-99 S", "city": "Fresno", "state": "CA", "distance": 0.434}, {"id": "A-3769360", "lat": 39.3449, "lng": -76.74529, "severity": 4, "startTime": "7/1/2022 12:39", "weatherCondition": "", "temperature": null, "humidity": null, "visibility": null, "windSpeed": null, "description": "I-695 OUTER LOOP PAST EXIT 18 MD 26 LIBERTY RD (SB)", "street": "I-695 S", "city": "Gwynn Oak", "state": "MD", "distance": 0.182}, {"id": "A-4813972", "lat": 40.76075, "lng": -111.8912, "severity": 4, "startTime": "5/11/2022 17:22", "weatherCondition": "Partly Cloudy / Windy", "temperature": 69.0, "humidity": 16.0, "visibility": 10.0, "windSpeed": 22.0, "description": "US-89 N is closed from US-89/S State St (E 4th South/E 400 S/UT-186) to S West Temple (W 400 S/W 4th South/UT-186) due to accident.", "street": "S", "city": "Salt Lake City", "state": "UT", "distance": 0.14400000000000002}, {"id": "A-633359", "lat": 30.46009, "lng": -81.64991, "severity": 3, "startTime": "4/29/2022 17:39", "weatherCondition": "Mostly Cloudy", "temperature": 76.0, "humidity": 52.0, "visibility": 10.0, "windSpeed": 14.0, "description": "Right lane blocked due to crash on I-95 Southbound before I-295 Exits 35.", "street": "I-295", "city": "Jacksonville", "state": "FL", "distance": 0.0}, {"id": "A-4241755", "lat": 40.71206, "lng": -73.36564, "severity": 2, "startTime": "6/8/2022 16:15", "weatherCondition": "Fair", "temperature": 81.0, "humidity": 54.0, "visibility": 10.0, "windSpeed": 13.0, "description": "Stationary traffic on NY-27 - NY-27 W from Little East Neck Rd/Exit 38 (NY-27) to CR-3/Wellwood Ave (NY-27) due to accident.", "street": "E Sunrise Hwy", "city": "West Babylon", "state": "NY", "distance": 1.161}, {"id": "A-565612", "lat": 35.56573, "lng": -97.51475, "severity": 1, "startTime": "7/15/2022 7:02", "weatherCondition": "Fair", "temperature": 76.0, "humidity": 67.0, "visibility": 10.0, "windSpeed": 10.0, "description": "Crash on Broadway Ext Northbound at Britton Rd.", "street": "Broadway Ext", "city": "Oklahoma City", "state": "OK", "distance": 0.0}, {"id": "A-5027028", "lat": 37.8908, "lng": -121.5699, "severity": 2, "startTime": "7/29/2022 21:07", "weatherCondition": "Fair", "temperature": 77.0, "humidity": 52.0, "visibility": 10.0, "windSpeed": 14.0, "description": "Stationary traffic on CA-4 from Tracy Blvd (CA-4) to Byron Hwy (Brentwood) (East) (CA-4) due to accident.", "street": "W Highway 4", "city": "Stockton", "state": "CA", "distance": 0.199}, {"id": "A-5126767", "lat": 42.34927, "lng": -83.21623, "severity": 2, "startTime": "46:00.0", "weatherCondition": "Cloudy", "temperature": 42.0, "humidity": 53.0, "visibility": 10.0, "windSpeed": 8.0, "description": "Slow traffic on M-39 N - Southfield Fwy from Warren Ave/Exit 8 (MI-39) to Plymouth Rd/Exit 10 (MI-39) due to accident.", "street": "M-39 N", "city": "Detroit", "state": "MI", "distance": 1.102}, {"id": "A-635486", "lat": 37.60265, "lng": -77.53773, "severity": 1, "startTime": "4/27/2022 6:26", "weatherCondition": "Fair", "temperature": 47.0, "humidity": 68.0, "visibility": 10.0, "windSpeed": 5.0, "description": "Crash on Skipwith Rd at Frazee Rd.", "street": "Skipwith Rd", "city": "Henrico", "state": "VA", "distance": 0.0}, {"id": "A-3731423", "lat": 40.12639, "lng": -105.14512, "severity": 4, "startTime": "3/5/2022 17:46", "weatherCondition": "Cloudy", "temperature": 33.0, "humidity": 66.0, "visibility": 10.0, "windSpeed": 5.0, "description": "Between Ogallala Road and Fordham Street (near Longmont) at Mile Point 53. Road closed expect delays due to a crash.Between Fordham Street and Ogallala Road (near Longmont) at Mile Point 53. Road clos", "street": "CO-119", "city": "Longmont", "state": "CO", "distance": 0.084}, {"id": "A-515441", "lat": 41.99458, "lng": -88.20711, "severity": 1, "startTime": "9/6/2022 8:45", "weatherCondition": "Mostly Cloudy", "temperature": 73.0, "humidity": 79.0, "visibility": 10.0, "windSpeed": 5.0, "description": "Crash on IL-59 Sutton Rd at Bartlett Rd.", "street": "W Bartlett Rd", "city": "Elgin", "state": "IL", "distance": 0.0}, {"id": "A-544773", "lat": 42.27629, "lng": -71.07502, "severity": 1, "startTime": "8/5/2022 17:06", "weatherCondition": "Thunder in the Vicinity", "temperature": 84.0, "humidity": 56.0, "visibility": 10.0, "windSpeed": 8.0, "description": "Crash on Morton St both ways at Druid St.", "street": "Morton St", "city": "Mattapan", "state": "MA", "distance": 0.0}, {"id": "A-4612566", "lat": 28.55182, "lng": -81.36444, "severity": 2, "startTime": "3/10/2022 15:50", "weatherCondition": "Heavy T-Storm", "temperature": 69.0, "humidity": 87.0, "visibility": 1.0, "windSpeed": 13.0, "description": "Slow traffic on US-92 E - US-17 N - US-92 W - US-17 S from E Concord St to Park Lake St due to accident.", "street": "N Mills Ave", "city": "Orlando", "state": "FL", "distance": 0.217}, {"id": "A-4725157", "lat": 38.66505, "lng": -78.46012, "severity": 4, "startTime": "32:30.0", "weatherCondition": "Mostly Cloudy", "temperature": 82.0, "humidity": 58.0, "visibility": 10.0, "windSpeed": 0.0, "description": "On BUS US-340 in the Town of Luray in the vicinity of E Main St; W Main St; BUS US-211E/W BUS US-211E (3 Page/Luray); BUS US-211W (3 Page/Luray) BUS US-211E BUS US-211E (3 Page/Luray) motorists can ex", "street": "S Broad St", "city": "Luray", "state": "VA", "distance": 0.068}, {"id": "A-513383", "lat": 35.19001, "lng": -80.79837, "severity": 1, "startTime": "9/7/2022 17:32", "weatherCondition": "Mostly Cloudy", "temperature": 83.0, "humidity": 53.0, "visibility": 10.0, "windSpeed": 10.0, "description": "Lane blocked due to crash on Wendover Rd at Marvin Rd.", "street": "Marvin Rd", "city": "Charlotte", "state": "NC", "distance": 0.0}, {"id": "A-592600", "lat": 33.94592, "lng": -117.29658, "severity": 3, "startTime": "6/15/2022 15:29", "weatherCondition": "Fair", "temperature": 93.0, "humidity": 32.0, "visibility": 10.0, "windSpeed": 18.0, "description": "HOV lane blocked due to crash on I-215 Northbound at Sycamore Canyon Blvd.", "street": "I-215", "city": "Riverside", "state": "CA", "distance": 0.0}, {"id": "A-544988", "lat": 42.44058, "lng": -71.61969, "severity": 1, "startTime": "8/5/2022 11:25", "weatherCondition": "Fair", "temperature": 89.0, "humidity": 45.0, "visibility": 10.0, "windSpeed": 7.0, "description": "Crash on MA-117 Main St at Wilder Rd.", "street": "Main St", "city": "Bolton", "state": "MA", "distance": 0.0}, {"id": "A-560625", "lat": 25.87025, "lng": -80.38647, "severity": 3, "startTime": "7/20/2022 14:10", "weatherCondition": "Partly Cloudy", "temperature": 90.0, "humidity": 61.0, "visibility": 10.0, "windSpeed": 10.0, "description": "Entry ramp to Florida's Turnpike North Northbound from Nw 106th St Southbound closed due to crash.", "street": "", "city": "Miami", "state": "FL", "distance": 1.7899999618530271}, {"id": "A-528918", "lat": 35.47862, "lng": -97.4667, "severity": 1, "startTime": "8/23/2022 18:28", "weatherCondition": "Fair", "temperature": 86.0, "humidity": 46.0, "visibility": 10.0, "windSpeed": 8.0, "description": "Crash on 10th St at Grand Blvd.", "street": "NE 10th St", "city": "Oklahoma City", "state": "OK", "distance": 0.0}, {"id": "A-4956194", "lat": 25.76088, "lng": -80.41873, "severity": 2, "startTime": "6/6/2022 16:55", "weatherCondition": "Light Rain", "temperature": 79.0, "humidity": 82.0, "visibility": 10.0, "windSpeed": 10.0, "description": "Stationary traffic on US-41 S from SW 139th Ave to NW 137th Ave due to accident.", "street": "SW 8th St", "city": "Miami", "state": "FL", "distance": 0.134}, {"id": "A-578027", "lat": 30.20056, "lng": -97.78568, "severity": 1, "startTime": "7/1/2022 7:15", "weatherCondition": "Fair", "temperature": 76.0, "humidity": 85.0, "visibility": 10.0, "windSpeed": 0.0, "description": "Crash on 1st St Northbound at Eberhart Ln.", "street": "Eberhart Ln", "city": "Austin", "state": "TX", "distance": 0.0}, {"id": "A-561358", "lat": 42.37227, "lng": -83.21709, "severity": 1, "startTime": "7/20/2022 5:11", "weatherCondition": "Fair", "temperature": 80.0, "humidity": 64.0, "visibility": 10.0, "windSpeed": 10.0, "description": "Crash on Plymouth Rd at Southfield Rd.", "street": "Plymouth Rd", "city": "Detroit", "state": "MI", "distance": 0.0}, {"id": "A-5335864", "lat": 41.51202, "lng": -94.19843, "severity": 4, "startTime": "38:23.0", "weatherCondition": "", "temperature": null, "humidity": null, "visibility": null, "windSpeed": null, "description": "Incident on I-80 WB near COUNTY HWY-P48 Road closed. Take alternate route.", "street": "I-80 W", "city": "Dexter", "state": "IA", "distance": 0.016}, {"id": "A-4314085", "lat": 34.86795, "lng": -110.16092, "severity": 4, "startTime": "9/14/2022 10:22", "weatherCondition": "Fair", "temperature": 66.0, "humidity": 73.0, "visibility": 10.0, "windSpeed": 5.0, "description": "Incident on AZ-377 EB near AZ-77 Road closed. Take alternate route.", "street": "AZ-377", "city": "Holbrook", "state": "AZ", "distance": 0.06}, {"id": "A-4468077", "lat": 43.1351, "lng": -117.0464, "severity": 2, "startTime": "3/10/2022 6:43", "weatherCondition": "Fair", "temperature": 19.0, "humidity": 63.0, "visibility": 10.0, "windSpeed": 9.0, "description": "An unconfirmed report of a crash has been received. Use caution.", "street": "Thomas Creek Rd", "city": "Jordan Valley", "state": "OR", "distance": 1.867}, {"id": "A-712587", "lat": 32.78914, "lng": -96.76321, "severity": 3, "startTime": "2/12/2022 11:10", "weatherCondition": "Cloudy", "temperature": 38.0, "humidity": 43.0, "visibility": 10.0, "windSpeed": 16.0, "description": "Left lane blocked due to crash on I-30 Westbound at Rl Thornton Fwy.", "street": "I-30 E", "city": "Dallas", "state": "TX", "distance": 0.0},